{
  "version": 0.6,
  "generator": "Overpass API 0.7.62.8 e802775f",
  "osm3s": {
    "timestamp_osm_base": "2025-11-10T17:01:15Z",
    "copyright": "The data included in this document is from www.openstreetmap.org. The data is made available under ODbL."
  },
  "elements": [
    {
      "type": "node",
      "id": 435416720,
      "lat": 28.1407762,
      "lon": -15.4308279,
      "tags": {
        "bench": "yes",
        "bin": "yes",
        "bus": "yes",
        "departures_board": "realtime",
        "highway": "bus_stop",
        "lit": "no",
        "name": "Parque Santa Catalina",
        "operator": "Guaguas Municipales S.A.",
        "public_transport": "platform",
        "ref": "429",
        "route_ref": "21;26;33;44;X47;49;65;L2",
        "shelter": "yes",
        "tactile_paving": "no"
      }
    },
    {
      "type": "node",
      "id": 435670010,
      "lat": 28.1303462,
      "lon": -15.4455075,
      "tags": {
        "bench": "no",
        "bin": "yes",
        "bus": "yes",
        "highway": "bus_stop",
        "lit": "no",
        "name": "Plaza Del Pilar",
        "public_transport": "platform",
        "ref": "175011",
        "shelter": "no",
        "tactile_paving": "yes"
      }
    },
    {
      "type": "node",
      "id": 435992882,
      "lat": 28.1221421,
      "lon": -15.4267359,
      "tags": {
        "bench": "yes",
        "bin": "no",
        "bus": "yes",
        "check_date:shelter": "2022-12-05",
        "departures_board": "timetable",
        "highway": "bus_stop",
        "lit": "yes",
        "name": "León y Castillo (C.N. Metropole)",
        "operator": "Guaguas Municipales S.A.",
        "public_transport": "platform",
        "ref": "13",
        "route_ref": "1;L1",
        "shelter": "yes",
        "tactile_paving": "yes"
      }
    },
    {
      "type": "node",
      "id": 436025415,
      "lat": 28.1499505,
      "lon": -15.4270109,
      "tags": {
        "bench": "no",
        "bin": "no",
        "bus": "yes",
        "highway": "bus_stop",
        "lit": "no",
        "name": "Pérez Muñoz, 34",
        "public_transport": "platform",
        "ref": "417",
        "shelter": "yes",
        "tactile_paving": "no"
      }
    },
    {
      "type": "node",
      "id": 436044073,
      "lat": 28.1400072,
      "lon": -15.4307681,
      "tags": {
        "bench": "yes",
        "bin": "no",
        "bus": "yes",
        "departures_board": "realtime",
        "highway": "bus_stop",
        "lit": "yes",
        "name": "Parque Santa Catalina",
        "operator": "Guaguas Municipales S.A.",
        "public_transport": "platform",
        "ref": "26",
        "route_ref": "1;12;L1",
        "shelter": "yes",
        "tactile_paving": "no",
        "website": "https://www.guaguas.com/"
      }
    },
    {
      "type": "node",
      "id": 436659438,
      "lat": 28.1287065,
      "lon": -15.4442491,
      "tags": {
        "bench": "no",
        "bus": "yes",
        "highway": "bus_stop",
        "name": "Plaza Del Pilar",
        "public_transport": "platform",
        "ref": "175012",
        "shelter": "no"
      }
    },
    {
      "type": "node",
      "id": 436686781,
      "lat": 28.1298725,
      "lon": -15.4427663,
      "tags": {
        "bench": "yes",
        "bus": "yes",
        "highway": "bus_stop",
        "name": "Castillejos, 23",
        "public_transport": "platform",
        "ref": "406",
        "shelter": "no"
      }
    },
    {
      "type": "node",
      "id": 436686783,
      "lat": 28.1297851,
      "lon": -15.4440535,
      "tags": {
        "bench": "no",
        "bin": "yes",
        "bus": "yes",
        "highway": "bus_stop",
        "lit": "no",
        "name": "Simancas, 70",
        "public_transport": "platform",
        "ref": "415",
        "shelter": "no",
        "tactile_paving": "no"
      }
    },
    {
      "type": "node",
      "id": 436686795,
      "lat": 28.1369217,
      "lon": -15.4355833,
      "tags": {
        "bus": "yes",
        "highway": "bus_stop",
        "name": "Fernando Guanarteme (plta. Farray)",
        "operator": "Guaguas Municipales",
        "public_transport": "platform",
        "ref": "486",
        "shelter": "yes"
      }
    },
    {
      "type": "node",
      "id": 436700939,
      "lat": 28.1415271,
      "lon": -15.4337094,
      "tags": {
        "bench": "no",
        "bin": "no",
        "bus": "yes",
        "departures_board": "timetable",
        "highway": "bus_stop",
        "lit": "yes",
        "name": "Tomás Miller (Playa de Las Canteras)",
        "operator": "Guaguas Municipales S.A.",
        "public_transport": "platform",
        "ref": "311",
        "route_ref": "1;2",
        "shelter": "no",
        "tactile_paving": "no"
      }
    },
    {
      "type": "node",
      "id": 437074122,
      "lat": 28.0727648,
      "lon": -15.451904,
      "tags": {
        "bus": "yes",
        "highway": "bus_stop",
        "name": "Ciencias Básicas / Informática",
        "network": "Guaguas Municipales",
        "operator": "Guaguas Municipales S.A",
        "public_transport": "platform",
        "ref": "605"
      }
    },
    {
      "type": "node",
      "id": 437074123,
      "lat": 28.0734302,
      "lon": -15.4527971,
      "tags": {
        "bus": "yes",
        "highway": "bus_stop",
        "name": "Ciencias Básicas",
        "network": "Guaguas Municipales",
        "operator": "Guaguas Municipales S.A.",
        "public_transport": "platform",
        "ref": "714"
      }
    },
    {
      "type": "node",
      "id": 437101089,
      "lat": 28.0725975,
      "lon": -15.4518063,
      "tags": {
        "bus": "yes",
        "highway": "bus_stop",
        "name": "Ciencias Básicas / Teología",
        "network": "Guaguas Municipales",
        "operator": "Guaguas Municipales S.A.",
        "public_transport": "platform",
        "ref": "612"
      }
    },
    {
      "type": "node",
      "id": 438753310,
      "lat": 28.0706604,
      "lon": -15.4551365,
      "tags": {
        "bus": "yes",
        "highway": "bus_stop",
        "name": "Ingenierías",
        "network": "Guaguas Municipales",
        "operator": "Guaguas Municipales S.A",
        "public_transport": "platform",
        "ref": "731"
      }
    },
    {
      "type": "node",
      "id": 438753312,
      "lat": 28.0713264,
      "lon": -15.4554814,
      "tags": {
        "bus": "yes",
        "highway": "bus_stop",
        "name": "Ingenierías",
        "operator": "Guaguas Municipales S.A",
        "public_transport": "platform",
        "ref": "983"
      }
    },
    {
      "type": "node",
      "id": 438753314,
      "lat": 28.0695041,
      "lon": -15.4543781,
      "tags": {
        "bench": "no",
        "bus": "yes",
        "highway": "bus_stop",
        "name": "Universidad",
        "operator": "Global",
        "public_transport": "platform",
        "ref": "152011",
        "shelter": "no"
      }
    },
    {
      "type": "node",
      "id": 438753322,
      "lat": 28.0715303,
      "lon": -15.4499161,
      "tags": {
        "bus": "yes",
        "highway": "bus_stop",
        "name": "Tafira Baja",
        "operator": "Global",
        "public_transport": "platform",
        "ref": "152002",
        "shelter": "no"
      }
    },
    {
      "type": "node",
      "id": 438753324,
      "lat": 28.0759834,
      "lon": -15.4444068,
      "tags": {
        "highway": "bus_stop",
        "public_transport": "platform"
      }
    },
    {
      "type": "node",
      "id": 438753325,
      "lat": 28.0749165,
      "lon": -15.4462846,
      "tags": {
        "bench": "no",
        "bin": "no",
        "highway": "bus_stop",
        "public_transport": "platform",
        "shelter": "no",
        "tactile_paving": "no"
      }
    },
    {
      "type": "node",
      "id": 438753343,
      "lat": 28.0873777,
      "lon": -15.4340985,
      "tags": {
        "bench": "no",
        "bin": "no",
        "bus": "yes",
        "highway": "bus_stop",
        "name": "C.M. Cabildo",
        "operator": "Global",
        "public_transport": "platform",
        "ref": "151021",
        "shelter": "no"
      }
    },
    {
      "type": "node",
      "id": 438825148,
      "lat": 28.1489361,
      "lon": -15.4303475,
      "tags": {
        "bench": "no",
        "bin": "no",
        "bus": "yes",
        "highway": "bus_stop",
        "lit": "yes",
        "name": "Faro, 11",
        "public_transport": "platform",
        "ref": "284",
        "shelter": "no",
        "tactile_paving": "no"
      }
    },
    {
      "type": "node",
      "id": 439213089,
      "lat": 28.0742367,
      "lon": -15.4469411,
      "tags": {
        "bus": "yes",
        "highway": "bus_stop",
        "name": "Ctra. Pico Viento (Asilo de Ancianos)",
        "network": "Guaguas Municipales",
        "operator": "Guaguas Municipales S.A",
        "public_transport": "platform",
        "ref": "787"
      }
    },
    {
      "type": "node",
      "id": 447084728,
      "lat": 28.1087484,
      "lon": -15.4159501,
      "tags": {
        "bench": "yes",
        "bin": "yes",
        "bus": "yes",
        "highway": "bus_stop",
        "lit": "yes",
        "name": "Rafael Cabrera (San Telmo)",
        "operator": "Guaguas Municipales S.A.",
        "public_transport": "platform",
        "ref": "496",
        "shelter": "yes",
        "tactile_paving": "yes",
        "wheelchair": "yes"
      }
    },
    {
      "type": "node",
      "id": 447084731,
      "lat": 28.1090261,
      "lon": -15.4160864,
      "tags": {
        "bench": "yes",
        "bin": "yes",
        "bus": "yes",
        "departures_board": "timetable",
        "highway": "bus_stop",
        "lit": "yes",
        "name": "Rafael Cabrera (San Telmo) Cod. 3",
        "network": "Guaguas Municipales",
        "operator": "Guaguas Municipales S.A.",
        "public_transport": "platform",
        "ref": "3",
        "route_ref": "1;10;11;12;17;L1",
        "shelter": "yes",
        "tactile_paving": "yes"
      }
    },
    {
      "type": "node",
      "id": 447581031,
      "lat": 28.1501996,
      "lon": -15.4219407,
      "tags": {
        "bus": "yes",
        "highway": "bus_stop",
        "name": "Manuel Becerra (Puerto)",
        "public_transport": "platform",
        "shelter": "no"
      }
    },
    {
      "type": "node",
      "id": 447581126,
      "lat": 28.1550363,
      "lon": -15.4296068,
      "tags": {
        "bus": "yes",
        "highway": "bus_stop",
        "name": "José Luis Guerra de Armas (cruce de Las Coloradas)",
        "public_transport": "platform",
        "ref": "440"
      }
    },
    {
      "type": "node",
      "id": 447597768,
      "lat": 28.0836904,
      "lon": -15.5004459,
      "tags": {
        "bench": "no",
        "bin": "no",
        "bus": "yes",
        "highway": "bus_stop",
        "name": "Amigos De Lourdes",
        "operator": "Global",
        "public_transport": "platform",
        "ref": "243031",
        "shelter": "no",
        "tactile_paving": "no"
      }
    },
    {
      "type": "node",
      "id": 448094006,
      "lat": 28.0797099,
      "lon": -15.4499477,
      "tags": {
        "bus": "yes",
        "highway": "bus_stop",
        "name": "Campus Universitario",
        "operator": "Global",
        "public_transport": "platform",
        "ref": "168112"
      }
    },
    {
      "type": "node",
      "id": 448094007,
      "lat": 28.079564,
      "lon": -15.4525517,
      "tags": {
        "bus": "yes",
        "highway": "bus_stop",
        "name": "Residencias (Campus Universitario)",
        "network": "Guaguas Municipales",
        "operator": "Guaguas Municipales S.A.",
        "public_transport": "platform",
        "ref": "951"
      }
    },
    {
      "type": "node",
      "id": 492479247,
      "lat": 28.1121832,
      "lon": -15.4233524,
      "tags": {
        "bench": "yes",
        "bin": "yes",
        "bus": "yes",
        "highway": "bus_stop",
        "lit": "no",
        "name": "Plaza de la Constitución (Obelisco)",
        "operator": "Guaguas Municipales S.A.",
        "public_transport": "platform",
        "ref": "247",
        "shelter": "yes",
        "tactile_paving": "yes"
      }
    },
    {
      "type": "node",
      "id": 492479265,
      "lat": 28.1118929,
      "lon": -15.4237963,
      "tags": {
        "bench": "yes",
        "bin": "yes",
        "bus": "yes",
        "highway": "bus_stop",
        "lit": "yes",
        "name": "Plaza de la Constitución (Obelisco)",
        "network": "Guaguas Municipales",
        "operator": "Guaguas Municipales S.A",
        "public_transport": "platform",
        "ref": "44",
        "shelter": "no",
        "tactile_paving": "no"
      }
    },
    {
      "type": "node",
      "id": 496060302,
      "lat": 28.1030355,
      "lon": -15.4171566,
      "tags": {
        "bus": "yes",
        "highway": "bus_stop",
        "name": "Alameda de Colón",
        "network": "2, 25, 32, 33",
        "public_transport": "platform"
      }
    },
    {
      "type": "node",
      "id": 496060303,
      "lat": 28.1027137,
      "lon": -15.4169101,
      "tags": {
        "bus": "yes",
        "highway": "bus_stop",
        "public_transport": "platform"
      }
    },
    {
      "type": "node",
      "id": 496062469,
      "lat": 28.1149196,
      "lon": -15.4251178,
      "tags": {
        "bench": "yes",
        "bin": "no",
        "bus": "yes",
        "highway": "bus_stop",
        "lit": "yes",
        "name": "Tomas Morales, frente 69",
        "operator": "Guaguas Municipales S.A.",
        "public_transport": "platform",
        "ref": "249",
        "shelter": "yes",
        "tactile_paving": "no"
      }
    },
    {
      "type": "node",
      "id": 496062475,
      "lat": 28.1212572,
      "lon": -15.430016,
      "tags": {
        "bench": "yes",
        "bin": "yes",
        "bus": "yes",
        "highway": "bus_stop",
        "lit": "no",
        "name": "Emilio Ley (Parque Doramas)",
        "operator": "Guaguas Municipales S.A.",
        "public_transport": "platform",
        "ref": "266",
        "shelter": "yes",
        "tactile_paving": "no"
      }
    },
    {
      "type": "node",
      "id": 496062479,
      "lat": 28.1250117,
      "lon": -15.4321736,
      "tags": {
        "bench": "yes",
        "bin": "yes",
        "bus": "yes",
        "highway": "bus_stop",
        "lit": "no",
        "name": "Pío XII (Colegio Teresiano)",
        "operator": "Guaguas Municipales S.A.",
        "public_transport": "platform",
        "ref": "255",
        "shelter": "yes",
        "tactile_paving": "yes"
      }
    },
    {
      "type": "node",
      "id": 496062491,
      "lat": 28.1084572,
      "lon": -15.4210393,
      "tags": {
        "bench": "yes",
        "bin": "yes",
        "bus": "yes",
        "highway": "bus_stop",
        "lit": "no",
        "name": "Ingeniero José Bosch y Sintes, 1",
        "operator": "Guaguas Municipales S.A.",
        "public_transport": "platform",
        "ref": "245",
        "shelter": "yes",
        "tactile_paving": "no"
      }
    },
    {
      "type": "node",
      "id": 513474337,
      "lat": 28.1325269,
      "lon": -15.4301,
      "tags": {
        "bench": "yes",
        "bin": "yes",
        "bus": "yes",
        "highway": "bus_stop",
        "lit": "no",
        "name": "León y Castillo (Edificio José Antonio)",
        "operator": "Guaguas Municipales S.A.",
        "public_transport": "platform",
        "ref": "22",
        "shelter": "yes",
        "tactile_paving": "yes"
      }
    },
    {
      "type": "node",
      "id": 568004060,
      "lat": 28.1083097,
      "lon": -15.4207383,
      "tags": {
        "bench": "yes",
        "bin": "yes",
        "bus": "yes",
        "highway": "bus_stop",
        "lit": "no",
        "name": "Tomás Morales, 5",
        "operator": "Guaguas Municipales S.A.",
        "public_transport": "platform",
        "ref": "264",
        "shelter": "yes",
        "tactile_paving": "no"
      }
    },
    {
      "type": "node",
      "id": 568457526,
      "lat": 28.1172681,
      "lon": -15.4273588,
      "tags": {
        "bench": "yes",
        "bin": "yes",
        "bus": "yes",
        "highway": "bus_stop",
        "lit": "no",
        "name": "Pérez del Toro (pl. Dr. Juan Bosch Millares)",
        "network": "Guaguas Municipales",
        "operator": "Guaguas Municipales S.A",
        "public_transport": "platform",
        "ref": "48",
        "shelter": "yes",
        "tactile_paving": "no"
      }
    },
    {
      "type": "node",
      "id": 573826537,
      "lat": 28.1115459,
      "lon": -15.4370517,
      "tags": {
        "bus": "yes",
        "highway": "bus_stop",
        "name": "Deán Rodríguez Bolaños (pl. Alvarado y Saz)",
        "network": "Guaguas Municipales",
        "operator": "Guaguas Municipales S.A",
        "public_transport": "platform",
        "ref": "60",
        "shelter": "yes",
        "tactile_paving": "yes",
        "wheelchair": "no"
      }
    },
    {
      "type": "node",
      "id": 577518088,
      "lat": 28.1234123,
      "lon": -15.5092293,
      "tags": {
        "bus": "yes",
        "highway": "bus_stop",
        "name": "Los Chalets",
        "public_transport": "platform"
      }
    },
    {
      "type": "node",
      "id": 596386959,
      "lat": 28.097734,
      "lon": -15.455087,
      "tags": {
        "bus": "yes",
        "highway": "bus_stop",
        "name": "Pintor Felo Monzón (C.C. Siete Palmas)",
        "public_transport": "platform",
        "ref": "725",
        "shelter": "no"
      }
    },
    {
      "type": "node",
      "id": 596507254,
      "lat": 28.0736796,
      "lon": -15.4932152,
      "tags": {
        "bus": "yes",
        "highway": "bus_stop",
        "name": "Subida A La Milagrosa",
        "operator": "Global",
        "public_transport": "platform",
        "ref": "241061"
      }
    },
    {
      "type": "node",
      "id": 670265498,
      "lat": 28.0619724,
      "lon": -15.4651563,
      "tags": {
        "bus": "yes",
        "highway": "bus_stop",
        "public_transport": "platform"
      }
    },
    {
      "type": "node",
      "id": 759928501,
      "lat": 28.1048787,
      "lon": -15.5082877,
      "tags": {
        "bus": "yes",
        "highway": "bus_stop",
        "name": "El Sequero 2",
        "operator": "Global",
        "public_transport": "platform",
        "ref": "302024"
      }
    },
    {
      "type": "node",
      "id": 1075133269,
      "lat": 28.0735712,
      "lon": -15.4158003,
      "tags": {
        "bus": "yes",
        "highway": "bus_stop",
        "name": "Cruce Hoya De La Plata",
        "public_transport": "platform",
        "ref": "1042",
        "shelter": "no"
      }
    },
    {
      "type": "node",
      "id": 1107789911,
      "lat": 28.0813452,
      "lon": -15.4165698,
      "tags": {
        "bench": "yes",
        "bin": "yes",
        "bus": "yes",
        "highway": "bus_stop",
        "lit": "no",
        "name": "Hospital Insular (cercania)",
        "public_transport": "platform",
        "ref": "1051",
        "shelter": "yes",
        "tactile_paving": "no"
      }
    },
    {
      "type": "node",
      "id": 1107790128,
      "lat": 28.0799382,
      "lon": -15.4159137,
      "tags": {
        "bench": "no",
        "bin": "no",
        "bus": "yes",
        "highway": "bus_stop",
        "lit": "no",
        "name": "San Cristobal",
        "public_transport": "platform",
        "shelter": "no",
        "tactile_paving": "no"
      }
    },
    {
      "type": "node",
      "id": 1338242033,
      "lat": 28.1478979,
      "lon": -15.4280992,
      "tags": {
        "bench": "yes",
        "bin": "yes",
        "bus": "yes",
        "highway": "bus_stop",
        "lit": "yes",
        "name": "Agustín Millares Sall (edificio Mapfre)",
        "operator": "Guaguas Municipales S.A.",
        "public_transport": "platform",
        "ref": "29",
        "shelter": "yes",
        "tactile_paving": "yes"
      }
    },
    {
      "type": "node",
      "id": 1338261824,
      "lat": 28.1478932,
      "lon": -15.4293575,
      "tags": {
        "bench": "no",
        "bin": "no",
        "bus": "yes",
        "highway": "bus_stop",
        "name": "Punto de parada",
        "public_transport": "platform",
        "shelter": "no",
        "tactile_paving": "no"
      }
    },
    {
      "type": "node",
      "id": 1338261826,
      "lat": 28.1491915,
      "lon": -15.425865,
      "tags": {
        "bench": "yes",
        "bin": "yes",
        "bus": "yes",
        "highway": "bus_stop",
        "lit": "yes",
        "name": "Juan Rejón, 67",
        "operator": "Guaguas Municipales S.A.",
        "public_transport": "platform",
        "ref": "34",
        "shelter": "no",
        "tactile_paving": "no"
      }
    },
    {
      "type": "node",
      "id": 1339153073,
      "lat": 28.1458196,
      "lon": -15.429372,
      "tags": {
        "bus": "yes",
        "highway": "bus_stop",
        "name": "Woermann",
        "operator": "Guaguas Municipales S.A.",
        "public_transport": "platform",
        "ref": "27",
        "shelter": "yes"
      }
    },
    {
      "type": "node",
      "id": 1452464465,
      "lat": 28.1187123,
      "lon": -15.4235148,
      "tags": {
        "bus": "yes",
        "highway": "bus_stop",
        "name": "Luis Doreste Silva, 50",
        "network": "Guaguas Municipales",
        "operator": "Guaguas Municipales S.A",
        "public_transport": "platform",
        "ref": "37",
        "shelter": "yes"
      }
    },
    {
      "type": "node",
      "id": 1755068936,
      "lat": 28.1659864,
      "lon": -15.4352792,
      "tags": {
        "bus": "yes",
        "highway": "bus_stop",
        "name": "Semana de la Pasión, 13 (Las Coloradas)",
        "public_transport": "platform",
        "ref": "957"
      }
    },
    {
      "type": "node",
      "id": 1755068975,
      "lat": 28.1645949,
      "lon": -15.4342613,
      "tags": {
        "bench": "yes",
        "bus": "yes",
        "highway": "bus_stop",
        "name": "María Dolorosa, 1",
        "public_transport": "platform",
        "ref": "414",
        "shelter": "yes"
      }
    },
    {
      "type": "node",
      "id": 1853520507,
      "lat": 28.0815356,
      "lon": -15.4781672,
      "tags": {
        "bus": "yes",
        "highway": "bus_stop",
        "name": "Ctra. de San Lorenzo, 188",
        "public_transport": "platform",
        "ref": "769",
        "shelter": "no"
      }
    },
    {
      "type": "node",
      "id": 1859089667,
      "lat": 28.1121768,
      "lon": -15.4273545,
      "tags": {
        "bus": "yes",
        "highway": "bus_stop",
        "name": "Pº San Antonio (López Orduña)",
        "public_transport": "platform",
        "ref": "285"
      }
    },
    {
      "type": "node",
      "id": 1863448543,
      "lat": 28.1111829,
      "lon": -15.4262217,
      "tags": {
        "bus": "yes",
        "highway": "bus_stop",
        "public_transport": "platform"
      }
    },
    {
      "type": "node",
      "id": 1863448601,
      "lat": 28.1214427,
      "lon": -15.4299302,
      "tags": {
        "bench": "yes",
        "bin": "yes",
        "bus": "yes",
        "highway": "bus_stop",
        "lit": "no",
        "name": "Emilio Ley (piscinas Julio Navarro)",
        "operator": "Guaguas Municipales S.A.",
        "public_transport": "platform",
        "ref": "253",
        "shelter": "yes",
        "tactile_paving": "no"
      }
    },
    {
      "type": "node",
      "id": 1863448710,
      "lat": 28.107785,
      "lon": -15.4218855,
      "tags": {
        "bus": "yes",
        "highway": "bus_stop",
        "name": "Carretera de Mata (Plaza del Pino)",
        "operator": "Guaguas Municipales S.A.",
        "public_transport": "platform",
        "ref": "281",
        "shelter": "yes",
        "tactile_paving": "no"
      }
    },
    {
      "type": "node",
      "id": 1865620717,
      "lat": 28.1217319,
      "lon": -15.436521,
      "tags": {
        "bench": "yes",
        "bin": "yes",
        "bus": "yes",
        "highway": "bus_stop",
        "name": "Av. Escaleritas, 48",
        "operator": "Guaguas Municipales S.A.",
        "public_transport": "platform",
        "ref": "310",
        "shelter": "yes",
        "tactile_paving": "yes"
      }
    },
    {
      "type": "node",
      "id": 1865620770,
      "lat": 28.1207647,
      "lon": -15.4364964,
      "tags": {
        "bench": "yes",
        "bin": "yes",
        "bus": "yes",
        "highway": "bus_stop",
        "name": "Av. Escaleritas (Cáritas)",
        "operator": "Guaguas Municipales S.A.",
        "public_transport": "platform",
        "ref": "299",
        "shelter": "yes"
      }
    },
    {
      "type": "node",
      "id": 1867109582,
      "lat": 28.1154766,
      "lon": -15.4358194,
      "tags": {
        "bus": "yes",
        "highway": "bus_stop",
        "name": "Obispo Romo, frente 27",
        "operator": "Guaguas Municipales S.A.",
        "public_transport": "platform",
        "ref": "295"
      }
    },
    {
      "type": "node",
      "id": 1877027844,
      "lat": 28.0894679,
      "lon": -15.4144541,
      "tags": {
        "bench": "no",
        "bin": "no",
        "bus": "yes",
        "highway": "bus_stop",
        "lit": "no",
        "name": "Lady Harimaguada",
        "public_transport": "platform",
        "shelter": "no",
        "tactile_paving": "no"
      }
    },
    {
      "type": "node",
      "id": 1878784149,
      "lat": 28.1104863,
      "lon": -15.4308696,
      "tags": {
        "bench": "yes",
        "bin": "yes",
        "bus": "yes",
        "highway": "bus_stop",
        "name": "Don Pedro Infinito, 24",
        "operator": "Guaguas Municipales S.A.",
        "public_transport": "platform",
        "ref": "291",
        "shelter": "no"
      }
    },
    {
      "type": "node",
      "id": 1895090399,
      "lat": 28.1257825,
      "lon": -15.4384845,
      "tags": {
        "bus": "yes",
        "highway": "bus_stop",
        "name": "Pintor Juan Guillermo (C.C. La Minilla)",
        "public_transport": "platform",
        "ref": "772"
      }
    },
    {
      "type": "node",
      "id": 1895615154,
      "lat": 28.1031779,
      "lon": -15.4176815,
      "tags": {
        "bus": "yes",
        "highway": "bus_stop",
        "public_transport": "platform"
      }
    },
    {
      "type": "node",
      "id": 1903003141,
      "lat": 28.0715583,
      "lon": -15.4498653,
      "tags": {
        "bus": "yes",
        "highway": "bus_stop",
        "name": "Ctra. del Centro (Barrio Quilmes, 3)",
        "network": "Guaguas Municipales",
        "operator": "Guaguas Municipales S.A.",
        "public_transport": "platform",
        "ref": "790",
        "shelter": "no"
      }
    },
    {
      "type": "node",
      "id": 1903040862,
      "lat": 28.101588,
      "lon": -15.4463625,
      "tags": {
        "bus": "yes",
        "highway": "bus_stop",
        "name": "Av. Escaleritas (urb. Parque Central)",
        "operator": "Guaguas Municipales S.A.",
        "public_transport": "platform",
        "ref": "394"
      }
    },
    {
      "type": "node",
      "id": 1903040865,
      "lat": 28.0995991,
      "lon": -15.4482126,
      "tags": {
        "bench": "no",
        "bus": "yes",
        "highway": "bus_stop",
        "name": "Av. Escaleritas, 169",
        "operator": "Guaguas Municipales S.A.",
        "public_transport": "platform",
        "ref": "392",
        "shelter": "no"
      }
    },
    {
      "type": "node",
      "id": 1903050008,
      "lat": 28.102843,
      "lon": -15.442778,
      "tags": {
        "bus": "yes",
        "highway": "bus_stop",
        "name": "Av. Escaleritas (C.C. La Ballena)",
        "network": "Guaguas Municipales",
        "operator": "Guaguas Municipales S.A",
        "public_transport": "platform",
        "ref": "70",
        "shelter": "yes",
        "tactile_paving": "no"
      }
    },
    {
      "type": "node",
      "id": 1903050009,
      "lat": 28.0999386,
      "lon": -15.4421858,
      "tags": {
        "bench": "yes",
        "bus": "yes",
        "highway": "bus_stop",
        "name": "Carretera del Norte (frente al Centro Comercial La Ballena)",
        "public_transport": "platform",
        "ref": "376",
        "shelter": "yes",
        "tactile_paving": "no"
      }
    },
    {
      "type": "node",
      "id": 1912670785,
      "lat": 28.0628416,
      "lon": -15.459165,
      "tags": {
        "bus": "yes",
        "highway": "bus_stop",
        "name": "Casa Del Gallo",
        "public_transport": "platform",
        "ref": "153002",
        "shelter": "yes"
      }
    },
    {
      "type": "node",
      "id": 1923079674,
      "lat": 28.1185747,
      "lon": -15.4371089,
      "tags": {
        "bench": "yes",
        "bin": "yes",
        "bus": "yes",
        "highway": "bus_stop",
        "lit": "no",
        "name": "Av. Escaleritas, 51",
        "operator": "Guaguas Municipales S.A.",
        "public_transport": "platform",
        "ref": "297",
        "shelter": "yes",
        "tactile_paving": "no"
      }
    },
    {
      "type": "node",
      "id": 1923104064,
      "lat": 28.1079142,
      "lon": -15.4224448,
      "tags": {
        "bus": "yes",
        "highway": "bus_stop",
        "name": "Pº San Antonio, 4",
        "public_transport": "platform",
        "ref": "521"
      }
    },
    {
      "type": "node",
      "id": 1923104069,
      "lat": 28.1080521,
      "lon": -15.4225086,
      "tags": {
        "bus": "yes",
        "highway": "bus_stop",
        "name": "Pº San Antonio, 27",
        "public_transport": "platform",
        "ref": "522"
      }
    },
    {
      "type": "node",
      "id": 1923108007,
      "lat": 28.1065745,
      "lon": -15.4205783,
      "tags": {
        "bench": "yes",
        "bin": "no",
        "bus": "yes",
        "highway": "bus_stop",
        "name": "Primero de Mayo, 35",
        "operator": "Guaguas Municipales S.A.",
        "public_transport": "platform",
        "ref": "262",
        "shelter": "no"
      }
    },
    {
      "type": "node",
      "id": 1923108009,
      "lat": 28.1059262,
      "lon": -15.4200156,
      "tags": {
        "bench": "yes",
        "bus": "yes",
        "highway": "bus_stop",
        "name": "Primero de Mayo, 56",
        "operator": "Guaguas Municipales S.A.",
        "public_transport": "platform",
        "ref": "279",
        "shelter": "yes"
      }
    },
    {
      "type": "node",
      "id": 1923516424,
      "lat": 28.1102045,
      "lon": -15.4308502,
      "tags": {
        "bus": "yes",
        "highway": "bus_stop",
        "name": "Alceste, 27",
        "public_transport": "platform",
        "ref": "302"
      }
    },
    {
      "type": "node",
      "id": 1923516425,
      "lat": 28.1111618,
      "lon": -15.4328462,
      "tags": {
        "bench": "yes",
        "bin": "no",
        "bus": "yes",
        "highway": "bus_stop",
        "name": "Zaragoza, 26",
        "operator": "Guaguas Municipales S.A.",
        "public_transport": "platform",
        "ref": "293",
        "shelter": "yes"
      }
    },
    {
      "type": "node",
      "id": 1923516426,
      "lat": 28.1110444,
      "lon": -15.4329167,
      "tags": {
        "bus": "yes",
        "highway": "bus_stop",
        "name": "Zaragoza, 27",
        "public_transport": "platform",
        "ref": "304"
      }
    },
    {
      "type": "node",
      "id": 1923532488,
      "lat": 28.1230624,
      "lon": -15.4359256,
      "tags": {
        "bench": "yes",
        "bin": "yes",
        "bus": "yes",
        "highway": "bus_stop",
        "lit": "no",
        "name": "Av. Escaleritas (club La Cornisa)",
        "operator": "Guaguas Municipales S.A.",
        "public_transport": "platform",
        "ref": "301",
        "shelter": "yes",
        "tactile_paving": "no"
      }
    },
    {
      "type": "node",
      "id": 1923532496,
      "lat": 28.1145504,
      "lon": -15.4353536,
      "tags": {
        "bus": "yes",
        "highway": "bus_stop",
        "name": "Obispo Romo (Mercado de Altavista)",
        "public_transport": "platform",
        "ref": "306",
        "shelter": "yes"
      }
    },
    {
      "type": "node",
      "id": 1923532499,
      "lat": 28.1168641,
      "lon": -15.4370542,
      "tags": {
        "bus": "yes",
        "highway": "bus_stop",
        "name": "Obispo Romo (parque Hermanos Millares)",
        "public_transport": "platform",
        "ref": "308"
      }
    },
    {
      "type": "node",
      "id": 1923547039,
      "lat": 28.1355185,
      "lon": -15.4318185,
      "tags": {
        "bench": "no",
        "bin": "no",
        "bus": "yes",
        "highway": "bus_stop",
        "public_transport": "platform",
        "shelter": "no",
        "tactile_paving": "no"
      }
    },
    {
      "type": "node",
      "id": 1929473441,
      "lat": 28.1336358,
      "lon": -15.4349593,
      "tags": {
        "bench": "yes",
        "bin": "yes",
        "bus": "yes",
        "highway": "bus_stop",
        "lit": "no",
        "name": "Concepción Arenal (pl. de España)",
        "operator": "Guaguas Municipales S.A.",
        "public_transport": "platform",
        "ref": "305",
        "shelter": "yes",
        "tactile_paving": "yes"
      }
    },
    {
      "type": "node",
      "id": 1929473457,
      "lat": 28.1281922,
      "lon": -15.4354025,
      "tags": {
        "bench": "yes",
        "bin": "yes",
        "bus": "yes",
        "highway": "bus_stop",
        "name": "Pº de Chil (Estadio Insular)",
        "operator": "Guaguas Municipales S.A.",
        "public_transport": "platform",
        "ref": "312",
        "shelter": "yes"
      }
    },
    {
      "type": "node",
      "id": 1929576585,
      "lat": 28.0771396,
      "lon": -15.4157983,
      "tags": {
        "bus": "yes",
        "highway": "bus_stop",
        "public_transport": "platform"
      }
    },
    {
      "type": "node",
      "id": 1932221788,
      "lat": 28.1374435,
      "lon": -15.4334067,
      "tags": {
        "bench": "yes",
        "bin": "yes",
        "bus": "yes",
        "departures_board": "timetable",
        "highway": "bus_stop",
        "lit": "yes",
        "name": "Tomas Miller, frente 31",
        "operator": "Guaguas Municipales S.A.",
        "public_transport": "platform",
        "ref": "263",
        "route_ref": "1;2",
        "shelter": "yes",
        "tactile_paving": "yes"
      }
    },
    {
      "type": "node",
      "id": 1932221793,
      "lat": 28.149179,
      "lon": -15.4252018,
      "tags": {
        "bench": "yes",
        "bin": "no",
        "bus": "yes",
        "highway": "bus_stop",
        "lit": "yes",
        "name": "Juan Rejón (Castillo de La Luz)",
        "operator": "Guaguas Municipales S.A.",
        "public_transport": "platform",
        "ref": "31",
        "shelter": "no",
        "tactile_paving": "no"
      }
    },
    {
      "type": "node",
      "id": 1932221795,
      "lat": 28.142193,
      "lon": -15.4302732,
      "tags": {
        "bench": "no",
        "bin": "no",
        "bus": "yes",
        "departures_board": "timetable",
        "highway": "bus_stop",
        "name": "Alfredo L. Jones, 1",
        "operator": "Guaguas Municipales S.A.",
        "public_transport": "platform",
        "ref": "313",
        "route_ref": "1;2",
        "shelter": "no",
        "tactile_paving": "yes"
      }
    },
    {
      "type": "node",
      "id": 1932221802,
      "lat": 28.1351831,
      "lon": -15.4332666,
      "tags": {
        "bench": "yes",
        "bin": "yes",
        "bus": "yes",
        "highway": "bus_stop",
        "lit": "no",
        "name": "Galicia, 32",
        "operator": "Guaguas Municipales S.A.",
        "public_transport": "platform",
        "ref": "261",
        "route_ref": "2",
        "shelter": "no",
        "tactile_paving": "no"
      }
    },
    {
      "type": "node",
      "id": 2028077091,
      "lat": 28.1089897,
      "lon": -15.4151634,
      "tags": {
        "bus": "yes",
        "highway": "bus_stop",
        "name": "Av. de Canarias (San Telmo)",
        "network": "Guaguas Municipales",
        "operator": "Guaguas Municipales S.A",
        "public_transport": "platform",
        "ref": "36",
        "shelter": "yes",
        "wikidata": "Q20850839"
      }
    },
    {
      "type": "node",
      "id": 2132236458,
      "lat": 28.1033149,
      "lon": -15.4437708,
      "tags": {
        "bus": "yes",
        "highway": "bus_stop",
        "name": "Av. Escaleritas (C.C. La Ballena)",
        "network": "Guaguas Municipales",
        "operator": "Guaguas Municipales S.A",
        "public_transport": "platform",
        "ref": "61",
        "shelter": "yes",
        "tactile_paving": "no"
      }
    },
    {
      "type": "node",
      "id": 2133176382,
      "lat": 28.1229305,
      "lon": -15.4275488,
      "tags": {
        "bench": "yes",
        "bin": "no",
        "bus": "yes",
        "highway": "bus_stop",
        "name": "León y Castillo (Colegio Salesiano)",
        "operator": "Guaguas Municipales S.A.",
        "public_transport": "platform",
        "shelter": "no"
      }
    },
    {
      "type": "node",
      "id": 2133176387,
      "lat": 28.1201022,
      "lon": -15.4256053,
      "tags": {
        "bench": "no",
        "bin": "yes",
        "bus": "yes",
        "check_date:shelter": "2022-12-18",
        "highway": "bus_stop",
        "lit": "yes",
        "name": "León y Castillo, 209",
        "public_transport": "platform",
        "shelter": "no",
        "tactile_paving": "yes"
      }
    },
    {
      "type": "node",
      "id": 2153929682,
      "lat": 28.1133402,
      "lon": -15.4303018,
      "tags": {
        "bus": "yes",
        "highway": "bus_stop",
        "name": "Mariucha (plaza Don Benito)",
        "public_transport": "platform",
        "ref": "289"
      }
    },
    {
      "type": "node",
      "id": 2529459812,
      "lat": 28.0859844,
      "lon": -15.4320905,
      "tags": {
        "bus": "yes",
        "highway": "bus_stop",
        "name": "La Tropical",
        "operator": "Global",
        "public_transport": "platform",
        "ref": "151032",
        "shelter": "no"
      }
    },
    {
      "type": "node",
      "id": 2529459856,
      "lat": 28.0848544,
      "lon": -15.4368354,
      "tags": {
        "bench": "yes",
        "bus": "yes",
        "highway": "bus_stop",
        "name": "Ctra. subida a Tafira (La Favorita)",
        "network": "Guaguas Municipales",
        "operator": "Guaguas Municipales S.A",
        "public_transport": "platform",
        "ref": "786",
        "shelter": "yes"
      }
    },
    {
      "type": "node",
      "id": 2577329906,
      "lat": 28.0947041,
      "lon": -15.4182406,
      "tags": {
        "bench": "yes",
        "bus": "yes",
        "highway": "bus_stop",
        "name": "Pº San José (iglesia San José)",
        "public_transport": "platform",
        "ref": "82",
        "shelter": "yes"
      }
    },
    {
      "type": "node",
      "id": 2577329925,
      "lat": 28.0950614,
      "lon": -15.4184224,
      "tags": {
        "bus": "yes",
        "highway": "bus_stop",
        "name": "Pº San José (iglesia San José)",
        "public_transport": "platform",
        "ref": "79"
      }
    },
    {
      "type": "node",
      "id": 2578404754,
      "lat": 28.1038808,
      "lon": -15.4137663,
      "tags": {
        "bench": "yes",
        "bus": "yes",
        "highway": "bus_stop",
        "name": "Teatro",
        "network": "Guaguas Municipales",
        "operator": "Guaguas Municipales S.A",
        "public_transport": "platform",
        "ref": "976",
        "shelter": "yes",
        "tactile_paving": "no"
      }
    },
    {
      "type": "node",
      "id": 2858395800,
      "lat": 28.1522356,
      "lon": -15.4216849,
      "tags": {
        "bus": "yes",
        "highway": "bus_stop",
        "name": "Roque Nublo 4",
        "public_transport": "platform"
      }
    },
    {
      "type": "node",
      "id": 2858447150,
      "lat": 28.1533336,
      "lon": -15.4236007,
      "tags": {
        "bus": "yes",
        "highway": "bus_stop",
        "name": "Palmar, frente 82",
        "public_transport": "platform",
        "ref": "294"
      }
    },
    {
      "type": "node",
      "id": 2876210068,
      "lat": 28.1105694,
      "lon": -15.5110787,
      "tags": {
        "bus": "yes",
        "highway": "bus_stop",
        "name": "C/ Clemente Jordán",
        "operator": "Global",
        "public_transport": "platform",
        "ref": "301022"
      }
    },
    {
      "type": "node",
      "id": 3014349577,
      "lat": 28.0737106,
      "lon": -15.462588,
      "tags": {
        "bus": "yes",
        "highway": "bus_stop",
        "public_transport": "platform"
      }
    },
    {
      "type": "node",
      "id": 3049705942,
      "lat": 28.1499608,
      "lon": -15.4218786,
      "tags": {
        "bus": "yes",
        "highway": "bus_stop",
        "name": "Manuel Becerra (Puerto)",
        "public_transport": "platform"
      }
    },
    {
      "type": "node",
      "id": 3101544012,
      "lat": 28.0696055,
      "lon": -15.4180633,
      "tags": {
        "bus": "yes",
        "highway": "bus_stop",
        "name": "Hoya de La Plata",
        "public_transport": "platform",
        "ref": "934"
      }
    },
    {
      "type": "node",
      "id": 3101828930,
      "lat": 28.0616463,
      "lon": -15.4597524,
      "tags": {
        "bus": "yes",
        "highway": "bus_stop",
        "name": "Casa Del Gallo",
        "public_transport": "platform",
        "ref": "153001",
        "shelter": "yes"
      }
    },
    {
      "type": "node",
      "id": 3101829133,
      "lat": 28.077173,
      "lon": -15.4445681,
      "tags": {
        "bench": "no",
        "bus": "yes",
        "highway": "bus_stop",
        "name": "Pico Viento",
        "network": "Guaguas Municipales",
        "operator": "Guaguas Municipales S.A",
        "public_transport": "platform",
        "ref": "719",
        "shelter": "no"
      }
    },
    {
      "type": "node",
      "id": 3264029015,
      "lat": 28.0671892,
      "lon": -15.4622665,
      "tags": {
        "bus": "yes",
        "highway": "bus_stop",
        "public_transport": "platform",
        "route_ref": "304"
      }
    },
    {
      "type": "node",
      "id": 3364602492,
      "lat": 28.0577002,
      "lon": -15.4651755,
      "tags": {
        "bus": "yes",
        "highway": "bus_stop",
        "name": "Cruce De La Calzada",
        "public_transport": "platform",
        "ref": "173001"
      }
    },
    {
      "type": "node",
      "id": 3412872730,
      "lat": 28.0511748,
      "lon": -15.4694418,
      "tags": {
        "bench": "yes",
        "bin": "yes",
        "bus": "yes",
        "highway": "bus_stop",
        "lit": "no",
        "name": "Villa De Westerling",
        "public_transport": "platform",
        "ref": "155052",
        "shelter": "yes",
        "tactile_paving": "yes"
      }
    },
    {
      "type": "node",
      "id": 3425077186,
      "lat": 28.144902,
      "lon": -15.4302774,
      "tags": {
        "bus": "yes",
        "highway": "bus_stop",
        "name": "Albareda, 43",
        "operator": "Guaguas Municipales S.A.",
        "public_transport": "platform",
        "ref": "28"
      }
    },
    {
      "type": "node",
      "id": 3425143739,
      "lat": 28.1481161,
      "lon": -15.4292862,
      "tags": {
        "bench": "no",
        "bin": "no",
        "bus": "yes",
        "highway": "bus_stop",
        "lit": "yes",
        "name": "Albareda (Mercado del Puerto)",
        "operator": "Guaguas Municipales S.A.",
        "public_transport": "platform",
        "shelter": "no",
        "tactile_paving": "no"
      }
    },
    {
      "type": "node",
      "id": 3434808011,
      "lat": 28.1357007,
      "lon": -15.4304724,
      "tags": {
        "bench": "yes",
        "bin": "no",
        "bus": "yes",
        "departures_board": "timetable",
        "highway": "bus_stop",
        "name": "Presidente Alvear (Iglesia del Pino)",
        "public_transport": "platform",
        "shelter": "no"
      }
    },
    {
      "type": "node",
      "id": 3437235800,
      "lat": 28.1351256,
      "lon": -15.4303564,
      "tags": {
        "bench": "yes",
        "bin": "yes",
        "bus": "yes",
        "highway": "bus_stop",
        "name": "Presidente Alvear, 17",
        "operator": "Guaguas Municipales S.A.",
        "public_transport": "platform",
        "shelter": "no"
      }
    },
    {
      "type": "node",
      "id": 3437235805,
      "lat": 28.1347499,
      "lon": -15.4296116,
      "tags": {
        "bench": "no",
        "bin": "no",
        "bus": "yes",
        "departures_board": "timetable",
        "highway": "bus_stop",
        "name": "Mesa y López (Base Naval)",
        "operator": "Guaguas Municipales S.A.",
        "public_transport": "platform",
        "ref": "798",
        "shelter": "no",
        "tactile_paving": "no",
        "wheelchair": "yes"
      }
    },
    {
      "type": "node",
      "id": 3437276743,
      "lat": 28.1347491,
      "lon": -15.4328729,
      "tags": {
        "bus": "yes",
        "highway": "bus_stop",
        "name": "Mesa y López 38",
        "public_transport": "platform"
      }
    },
    {
      "type": "node",
      "id": 3437301900,
      "lat": 28.1346751,
      "lon": -15.4338823,
      "tags": {
        "bus": "yes",
        "highway": "bus_stop",
        "name": "Mesa y López 42",
        "public_transport": "platform",
        "shelter": "yes",
        "tactile_paving": "no"
      }
    },
    {
      "type": "node",
      "id": 3437630393,
      "lat": 28.1346422,
      "lon": -15.4312084,
      "tags": {
        "bus": "yes",
        "highway": "bus_stop",
        "name": "El Corte Inglés",
        "public_transport": "platform"
      }
    },
    {
      "type": "node",
      "id": 3961991377,
      "lat": 28.0997822,
      "lon": -15.4138776,
      "tags": {
        "bench": "no",
        "bin": "no",
        "bus": "yes",
        "highway": "bus_stop",
        "lit": "no",
        "name": "Reyes Católicos 9",
        "public_transport": "platform",
        "ref": "171",
        "shelter": "no",
        "tactile_paving": "no"
      }
    },
    {
      "type": "node",
      "id": 3984319811,
      "lat": 28.0588604,
      "lon": -15.4685038,
      "tags": {
        "bus": "yes",
        "highway": "bus_stop",
        "name": "La Calzada",
        "public_transport": "platform",
        "ref": "174001"
      }
    },
    {
      "type": "node",
      "id": 4033740689,
      "lat": 28.1020894,
      "lon": -15.4149962,
      "tags": {
        "bench": "yes",
        "bin": "yes",
        "bus": "yes",
        "check_date:shelter": "2023-06-25",
        "highway": "bus_stop",
        "name": "Plaza de las Ranas",
        "public_transport": "platform",
        "ref": "151072",
        "shelter": "no"
      }
    },
    {
      "type": "node",
      "id": 4033740690,
      "lat": 28.1023781,
      "lon": -15.4150059,
      "tags": {
        "bench": "yes",
        "bin": "yes",
        "bus": "yes",
        "departures_board": "timetable",
        "highway": "bus_stop",
        "name": "Plaza de las Ranas",
        "network": "Guaguas Municipales",
        "public_transport": "platform",
        "ref": "513",
        "shelter": "yes",
        "tactile_paving": "no"
      }
    },
    {
      "type": "node",
      "id": 4033740691,
      "lat": 28.1024392,
      "lon": -15.4149058,
      "tags": {
        "bench": "yes",
        "bin": "yes",
        "bus": "yes",
        "departures_board": "timetable",
        "highway": "bus_stop",
        "lit": "yes",
        "name": "Plaza de las Ranas",
        "public_transport": "platform",
        "ref": "151065",
        "route_ref": "327;328",
        "shelter": "yes",
        "tactile_paving": "no"
      }
    },
    {
      "type": "node",
      "id": 4033740692,
      "lat": 28.1024982,
      "lon": -15.4148092,
      "tags": {
        "bench": "yes",
        "bin": "yes",
        "bus": "yes",
        "departures_board": "timetable",
        "highway": "bus_stop",
        "name": "Plaza de las Ranas",
        "public_transport": "platform",
        "ref": "151063",
        "route_ref": "302;311;313",
        "shelter": "no",
        "tactile_paving": "no"
      }
    },
    {
      "type": "node",
      "id": 4033740693,
      "lat": 28.1025674,
      "lon": -15.4146961,
      "tags": {
        "bench": "yes",
        "bin": "yes",
        "bus": "yes",
        "departures_board": "timetable",
        "highway": "bus_stop",
        "name": "Plaza de las Ranas",
        "public_transport": "platform",
        "ref": "151061",
        "route_ref": "301;303",
        "shelter": "no",
        "tactile_paving": "no"
      }
    },
    {
      "type": "node",
      "id": 4046901117,
      "lat": 28.0653235,
      "lon": -15.4576115,
      "tags": {
        "bench": "yes",
        "bin": "yes",
        "bus": "yes",
        "highway": "bus_stop",
        "name": "Jardín Canario",
        "public_transport": "platform",
        "ref": "153012",
        "shelter": "yes",
        "tactile_paving": "no"
      }
    },
    {
      "type": "node",
      "id": 4046901118,
      "lat": 28.0665176,
      "lon": -15.4570886,
      "tags": {
        "bench": "yes",
        "bin": "no",
        "bus": "yes",
        "highway": "bus_stop",
        "name": "Jardín Canario",
        "public_transport": "platform",
        "ref": "153021",
        "shelter": "yes"
      }
    },
    {
      "type": "node",
      "id": 4052076390,
      "lat": 28.1346916,
      "lon": -15.4336482,
      "tags": {
        "bench": "yes",
        "bus": "yes",
        "description": "105->Galdar",
        "highway": "bus_stop",
        "name": "El Corte Inglés",
        "public_transport": "platform",
        "shelter": "yes",
        "tactile_paving": "no"
      }
    },
    {
      "type": "node",
      "id": 4052076391,
      "lat": 28.1335648,
      "lon": -15.4363586,
      "tags": {
        "bench": "yes",
        "bin": "yes",
        "bus": "yes",
        "check_date:shelter": "2024-10-09",
        "highway": "bus_stop",
        "lit": "yes",
        "name": "Ambulatorio De Alcaravanera",
        "public_transport": "platform",
        "ref": "175031",
        "shelter": "yes",
        "tactile_paving": "no"
      }
    },
    {
      "type": "node",
      "id": 4052076392,
      "lat": 28.1324178,
      "lon": -15.4407876,
      "tags": {
        "bench": "no",
        "bin": "yes",
        "bus": "yes",
        "highway": "bus_stop",
        "lit": "yes",
        "name": "La Fosforera",
        "public_transport": "platform",
        "ref": "175021",
        "shelter": "no",
        "tactile_paving": "yes"
      }
    },
    {
      "type": "node",
      "id": 4052076393,
      "lat": 28.1292609,
      "lon": -15.4497748,
      "tags": {
        "bench": "yes",
        "bus": "yes",
        "covered": "yes",
        "highway": "bus_stop",
        "name": "C.C. Las Arenas",
        "public_transport": "platform",
        "ref": "175001",
        "tactile_paving": "no"
      }
    },
    {
      "type": "node",
      "id": 4052076394,
      "lat": 28.1361416,
      "lon": -15.4880996,
      "tags": {
        "bus": "yes",
        "highway": "bus_stop",
        "name": "Tinocas",
        "public_transport": "platform",
        "ref": "176001",
        "shelter": "yes"
      }
    },
    {
      "type": "node",
      "id": 4053278945,
      "lat": 28.0766121,
      "lon": -15.517871,
      "tags": {
        "bus": "yes",
        "highway": "bus_stop",
        "name": "Barranco Zapatero",
        "operator": "Global",
        "public_transport": "platform",
        "ref": "132031",
        "shelter": "no"
      }
    },
    {
      "type": "node",
      "id": 4053278968,
      "lat": 28.0776123,
      "lon": -15.5191721,
      "tags": {
        "bus": "yes",
        "highway": "bus_stop",
        "name": "Parada Del Francés",
        "operator": "Global",
        "public_transport": "platform",
        "ref": "132022",
        "shelter": "no"
      }
    },
    {
      "type": "node",
      "id": 4053278973,
      "lat": 28.0776445,
      "lon": -15.5172764,
      "tags": {
        "bus": "yes",
        "highway": "bus_stop",
        "name": "Barranco Zapatero",
        "operator": "Global",
        "public_transport": "platform",
        "ref": "132032",
        "shelter": "no"
      }
    },
    {
      "type": "node",
      "id": 4053279022,
      "lat": 28.079146,
      "lon": -15.5146008,
      "tags": {
        "bench": "no",
        "bus": "yes",
        "highway": "bus_stop",
        "name": "El Chaparral",
        "operator": "Global",
        "public_transport": "platform",
        "ref": "132042",
        "shelter": "no"
      }
    },
    {
      "type": "node",
      "id": 4053839438,
      "lat": 28.1272184,
      "lon": -15.4458702,
      "tags": {
        "bench": "no",
        "bin": "no",
        "bus": "yes",
        "check_date:shelter": "2023-10-06",
        "description": "103, 105, 116, 117, 204, 206, 210",
        "highway": "bus_stop",
        "name": "C.C. Las Arenas",
        "public_transport": "platform",
        "ref": "175002",
        "shelter": "no"
      }
    },
    {
      "type": "node",
      "id": 4053839439,
      "lat": 28.1335748,
      "lon": -15.4813687,
      "tags": {
        "bench": "yes",
        "bin": "no",
        "bus": "yes",
        "check_date:shelter": "2023-12-11",
        "highway": "bus_stop",
        "name": "Cruce Casa Ayala",
        "public_transport": "platform",
        "ref": "176012",
        "shelter": "yes"
      }
    },
    {
      "type": "node",
      "id": 4054233777,
      "lat": 28.0680187,
      "lon": -15.5199722,
      "tags": {
        "bus": "yes",
        "highway": "bus_stop",
        "name": "El Paso",
        "operator": "Global",
        "public_transport": "platform",
        "ref": "133162"
      }
    },
    {
      "type": "node",
      "id": 4054234061,
      "lat": 28.0701156,
      "lon": -15.5168137,
      "tags": {
        "bench": "no",
        "bus": "yes",
        "highway": "bus_stop",
        "name": "Cruce Loblanco",
        "operator": "Global",
        "public_transport": "platform",
        "ref": "244001",
        "shelter": "no"
      }
    },
    {
      "type": "node",
      "id": 4054234067,
      "lat": 28.0702576,
      "lon": -15.5165235,
      "tags": {
        "bench": "no",
        "bin": "no",
        "bus": "yes",
        "highway": "bus_stop",
        "name": "Cruce Loblanco",
        "operator": "Global",
        "public_transport": "platform",
        "ref": "244002",
        "shelter": "no",
        "tactile_paving": "no"
      }
    },
    {
      "type": "node",
      "id": 4054234228,
      "lat": 28.0724083,
      "lon": -15.5132547,
      "tags": {
        "bench": "yes",
        "bin": "yes",
        "bus": "yes",
        "highway": "bus_stop",
        "name": "Aavv Santo Ángel",
        "operator": "Global",
        "public_transport": "platform",
        "ref": "244012",
        "shelter": "yes",
        "tactile_paving": "no"
      }
    },
    {
      "type": "node",
      "id": 4054234237,
      "lat": 28.0728815,
      "lon": -15.5131,
      "tags": {
        "bench": "yes",
        "bus": "yes",
        "highway": "bus_stop",
        "name": "Aavv Santo Ángel",
        "operator": "Global",
        "public_transport": "platform",
        "ref": "244011",
        "shelter": "yes"
      }
    },
    {
      "type": "node",
      "id": 4054867779,
      "lat": 28.0774505,
      "lon": -15.5091363,
      "tags": {
        "bench": "no",
        "bin": "no",
        "bus": "yes",
        "highway": "bus_stop",
        "name": "San José Del Álamo",
        "operator": "Global",
        "public_transport": "platform",
        "ref": "243002",
        "shelter": "no",
        "tactile_paving": "no"
      }
    },
    {
      "type": "node",
      "id": 4054867846,
      "lat": 28.0798397,
      "lon": -15.505758,
      "tags": {
        "bench": "yes",
        "bin": "yes",
        "bus": "yes",
        "highway": "bus_stop",
        "name": "C/ El Parque",
        "operator": "Global",
        "public_transport": "platform",
        "ref": "243011",
        "shelter": "yes",
        "tactile_paving": "no"
      }
    },
    {
      "type": "node",
      "id": 4061207351,
      "lat": 28.0981221,
      "lon": -15.5127674,
      "tags": {
        "bus": "yes",
        "highway": "bus_stop",
        "name": "Santidad Alta",
        "operator": "Global",
        "public_transport": "platform",
        "ref": "302000"
      }
    },
    {
      "type": "node",
      "id": 4061207509,
      "lat": 28.0991509,
      "lon": -15.5117411,
      "tags": {
        "bus": "yes",
        "highway": "bus_stop",
        "name": "Plaza De Santidad Alta",
        "operator": "Global",
        "public_transport": "platform",
        "ref": "302012"
      }
    },
    {
      "type": "node",
      "id": 4062951616,
      "lat": 28.1124934,
      "lon": -15.5140864,
      "tags": {
        "bus": "yes",
        "highway": "bus_stop",
        "name": "C/ Pintor Santiago Santana",
        "operator": "Global",
        "public_transport": "platform",
        "ref": "301042"
      }
    },
    {
      "type": "node",
      "id": 4062951650,
      "lat": 28.1131982,
      "lon": -15.5154893,
      "tags": {
        "bus": "yes",
        "highway": "bus_stop",
        "name": "Juan XXIII",
        "operator": "Global",
        "public_transport": "platform",
        "ref": "300001"
      }
    },
    {
      "type": "node",
      "id": 4062951686,
      "lat": 28.1139952,
      "lon": -15.5168571,
      "tags": {
        "bus": "yes",
        "highway": "bus_stop",
        "name": "Casas Baratas",
        "public_transport": "platform"
      }
    },
    {
      "type": "node",
      "id": 4062951696,
      "lat": 28.1145874,
      "lon": -15.5183684,
      "tags": {
        "bus": "yes",
        "highway": "bus_stop",
        "name": "Puente de Arucas",
        "operator": "Global",
        "public_transport": "platform",
        "ref": "106021"
      }
    },
    {
      "type": "node",
      "id": 4062951697,
      "lat": 28.1144726,
      "lon": -15.5142979,
      "tags": {
        "bus": "yes",
        "highway": "bus_stop",
        "name": "Entrada Hoya de Ariñez",
        "public_transport": "platform"
      }
    },
    {
      "type": "node",
      "id": 4062951699,
      "lat": 28.1144907,
      "lon": -15.5184609,
      "tags": {
        "bus": "yes",
        "highway": "bus_stop",
        "name": "Puente de Arucas",
        "operator": "Global",
        "public_transport": "platform",
        "ref": "106022"
      }
    },
    {
      "type": "node",
      "id": 4063029029,
      "lat": 28.1069185,
      "lon": -15.5029063,
      "tags": {
        "bus": "yes",
        "highway": "bus_stop",
        "name": "San Francisco Javier",
        "operator": "Global",
        "public_transport": "platform",
        "ref": "105042"
      }
    },
    {
      "type": "node",
      "id": 4063029037,
      "lat": 28.1072547,
      "lon": -15.5033758,
      "tags": {
        "bus": "yes",
        "highway": "bus_stop",
        "name": "San Francisco Javier",
        "operator": "Global",
        "public_transport": "platform",
        "ref": "105031"
      }
    },
    {
      "type": "node",
      "id": 4063029038,
      "lat": 28.107307,
      "lon": -15.5011256,
      "tags": {
        "bus": "yes",
        "highway": "bus_stop",
        "name": "San Francisco Javier Nº98",
        "operator": "Global",
        "public_transport": "platform",
        "ref": "105052"
      }
    },
    {
      "type": "node",
      "id": 4063029041,
      "lat": 28.1073512,
      "lon": -15.5087878,
      "tags": {
        "bus": "yes",
        "highway": "bus_stop",
        "name": "Iglesia De Santidad",
        "operator": "Global",
        "public_transport": "platform",
        "ref": "301001"
      }
    },
    {
      "type": "node",
      "id": 4063029044,
      "lat": 28.1075005,
      "lon": -15.5049217,
      "tags": {
        "bus": "yes",
        "highway": "bus_stop",
        "name": "San Francisco Javier Nº65",
        "operator": "Global",
        "public_transport": "platform",
        "ref": "105032"
      }
    },
    {
      "type": "node",
      "id": 4063029046,
      "lat": 28.1076761,
      "lon": -15.5088098,
      "tags": {
        "bus": "yes",
        "highway": "bus_stop",
        "name": "Iglesia De Santidad",
        "operator": "Global",
        "public_transport": "platform",
        "ref": "301002"
      }
    },
    {
      "type": "node",
      "id": 4063029054,
      "lat": 28.1087052,
      "lon": -15.5065531,
      "tags": {
        "bus": "yes",
        "highway": "bus_stop",
        "name": "La Macro Show",
        "operator": "Global",
        "public_transport": "platform",
        "ref": "105021"
      }
    },
    {
      "type": "node",
      "id": 4063029063,
      "lat": 28.1102328,
      "lon": -15.5089229,
      "tags": {
        "bus": "yes",
        "highway": "bus_stop",
        "name": "El Torreon",
        "operator": "Global",
        "public_transport": "platform",
        "ref": "105012"
      }
    },
    {
      "type": "node",
      "id": 4063029071,
      "lat": 28.1114054,
      "lon": -15.5101342,
      "tags": {
        "bus": "yes",
        "highway": "bus_stop",
        "name": "Lomo De Arucas",
        "operator": "Global",
        "public_transport": "platform",
        "ref": "105002"
      }
    },
    {
      "type": "node",
      "id": 4063029074,
      "lat": 28.1118211,
      "lon": -15.5077611,
      "tags": {
        "bus": "yes",
        "highway": "bus_stop",
        "name": "Fabrica De Tejas",
        "operator": "Global",
        "public_transport": "platform",
        "ref": "105011"
      }
    },
    {
      "type": "node",
      "id": 4063029075,
      "lat": 28.1118488,
      "lon": -15.5123309,
      "tags": {
        "bus": "yes",
        "highway": "bus_stop",
        "name": "Hoya de Ariñez",
        "public_transport": "platform"
      }
    },
    {
      "type": "node",
      "id": 4063029076,
      "lat": 28.1118722,
      "lon": -15.5127054,
      "tags": {
        "bus": "yes",
        "highway": "bus_stop",
        "name": "Hoya de Ariñez",
        "public_transport": "platform"
      }
    },
    {
      "type": "node",
      "id": 4066863770,
      "lat": 28.1297908,
      "lon": -15.5198764,
      "tags": {
        "bus": "yes",
        "highway": "bus_stop",
        "name": "El Tanque",
        "public_transport": "platform",
        "ref": "117041"
      }
    },
    {
      "type": "node",
      "id": 4066863803,
      "lat": 28.1307225,
      "lon": -15.5190337,
      "tags": {
        "bus": "yes",
        "highway": "bus_stop",
        "name": "Colegio De Trasmontaña",
        "public_transport": "platform",
        "ref": "117032"
      }
    },
    {
      "type": "node",
      "id": 4066863812,
      "lat": 28.1309639,
      "lon": -15.5187803,
      "tags": {
        "bus": "yes",
        "highway": "bus_stop",
        "name": "Colegio De Trasmontaña",
        "public_transport": "platform",
        "ref": "117031"
      }
    },
    {
      "type": "node",
      "id": 4066863901,
      "lat": 28.1328098,
      "lon": -15.5189098,
      "tags": {
        "bus": "yes",
        "highway": "bus_stop",
        "name": "El Molino",
        "public_transport": "platform",
        "ref": "117022"
      }
    },
    {
      "type": "node",
      "id": 4069629115,
      "lat": 28.1212774,
      "lon": -15.5147841,
      "tags": {
        "bus": "yes",
        "highway": "bus_stop",
        "name": "El Hornillo",
        "public_transport": "platform",
        "ref": "226101"
      }
    },
    {
      "type": "node",
      "id": 4069629232,
      "lat": 28.1334564,
      "lon": -15.5150678,
      "tags": {
        "bus": "yes",
        "highway": "bus_stop",
        "public_transport": "platform"
      }
    },
    {
      "type": "node",
      "id": 4069629233,
      "lat": 28.1417236,
      "lon": -15.5110795,
      "tags": {
        "bus": "yes",
        "highway": "bus_stop",
        "name": "Granja Cabildo",
        "public_transport": "platform",
        "ref": "227012"
      }
    },
    {
      "type": "node",
      "id": 4069629234,
      "lat": 28.1418231,
      "lon": -15.5111257,
      "tags": {
        "bus": "yes",
        "highway": "bus_stop",
        "name": "Granja Cabildo",
        "public_transport": "platform",
        "ref": "227011"
      }
    },
    {
      "type": "node",
      "id": 4069875367,
      "lat": 28.133727,
      "lon": -15.5137535,
      "tags": {
        "bus": "yes",
        "highway": "bus_stop",
        "name": "El Lomito",
        "public_transport": "platform"
      }
    },
    {
      "type": "node",
      "id": 4071365998,
      "lat": 28.1121007,
      "lon": -15.5101785,
      "tags": {
        "bus": "yes",
        "highway": "bus_stop",
        "name": "Lomo De Arucas",
        "operator": "Global",
        "public_transport": "platform",
        "ref": "105001"
      }
    },
    {
      "type": "node",
      "id": 4071366202,
      "lat": 28.1155533,
      "lon": -15.5101327,
      "tags": {
        "bus": "yes",
        "highway": "bus_stop",
        "name": "Las Palmeras",
        "public_transport": "platform"
      }
    },
    {
      "type": "node",
      "id": 4071366203,
      "lat": 28.1155891,
      "lon": -15.5100144,
      "tags": {
        "bus": "yes",
        "highway": "bus_stop",
        "name": "Las Palmeras",
        "public_transport": "platform"
      }
    },
    {
      "type": "node",
      "id": 4071366305,
      "lat": 28.1199593,
      "lon": -15.5108681,
      "tags": {
        "bus": "yes",
        "highway": "bus_stop",
        "name": "Galletas Bandama",
        "public_transport": "platform"
      }
    },
    {
      "type": "node",
      "id": 4071861958,
      "lat": 28.1418557,
      "lon": -15.5038299,
      "tags": {
        "bench": "yes",
        "bus": "yes",
        "check_date:shelter": "2023-12-11",
        "highway": "bus_stop",
        "name": "Albergue Insular de Animales",
        "public_transport": "platform",
        "ref": "177042",
        "shelter": "yes"
      }
    },
    {
      "type": "node",
      "id": 4071862055,
      "lat": 28.1426119,
      "lon": -15.5071912,
      "tags": {
        "bench": "yes",
        "bin": "yes",
        "bus": "yes",
        "check_date:shelter": "2023-12-11",
        "highway": "bus_stop",
        "name": "Cruce de Arucas",
        "public_transport": "platform",
        "ref": "227002",
        "shelter": "yes"
      }
    },
    {
      "type": "node",
      "id": 4071862061,
      "lat": 28.1427437,
      "lon": -15.5064563,
      "tags": {
        "bench": "yes",
        "bus": "yes",
        "highway": "bus_stop",
        "name": "Cruce de Arucas",
        "public_transport": "platform",
        "ref": "227001",
        "shelter": "yes"
      }
    },
    {
      "type": "node",
      "id": 4072952740,
      "lat": 28.1138114,
      "lon": -15.4991062,
      "tags": {
        "bus": "yes",
        "highway": "bus_stop",
        "public_transport": "platform"
      }
    },
    {
      "type": "node",
      "id": 4072952805,
      "lat": 28.1171467,
      "lon": -15.4990156,
      "tags": {
        "bus": "yes",
        "highway": "bus_stop",
        "public_transport": "platform"
      }
    },
    {
      "type": "node",
      "id": 4072952898,
      "lat": 28.1202678,
      "lon": -15.5072256,
      "tags": {
        "bus": "yes",
        "highway": "bus_stop",
        "name": "C/ Nuñez De Balboa",
        "public_transport": "platform",
        "ref": "306061"
      }
    },
    {
      "type": "node",
      "id": 4072952959,
      "lat": 28.1241369,
      "lon": -15.5045039,
      "tags": {
        "bus": "yes",
        "highway": "bus_stop",
        "name": "Lomo Espino",
        "public_transport": "platform",
        "ref": "306002"
      }
    },
    {
      "type": "node",
      "id": 4072952964,
      "lat": 28.1247946,
      "lon": -15.5058971,
      "tags": {
        "bus": "yes",
        "highway": "bus_stop",
        "name": "Viveres La Dehesa",
        "public_transport": "platform",
        "ref": "306091"
      }
    },
    {
      "type": "node",
      "id": 4072952975,
      "lat": 28.1210421,
      "lon": -15.5066417,
      "tags": {
        "bus": "yes",
        "highway": "bus_stop",
        "name": "C/ Nuñez De Balboa",
        "public_transport": "platform",
        "ref": "306071"
      }
    },
    {
      "type": "node",
      "id": 4073562112,
      "lat": 28.140592,
      "lon": -15.4942762,
      "tags": {
        "bus": "yes",
        "highway": "bus_stop",
        "name": "Punta De Arucas",
        "public_transport": "platform",
        "ref": "177041"
      }
    },
    {
      "type": "node",
      "id": 4107675147,
      "lat": 28.0829267,
      "lon": -15.4173347,
      "tags": {
        "addr:city": "Las Palmas de Gran Canaria",
        "addr:postcode": "35213",
        "addr:street": "Calle Doña luisa",
        "bus": "yes",
        "highway": "bus_stop",
        "name": "calle doña luisa",
        "operator": "pardilla bus",
        "public_transport": "platform",
        "ref": "3"
      }
    },
    {
      "type": "node",
      "id": 4132484171,
      "lat": 28.0532504,
      "lon": -15.481642,
      "tags": {
        "bus": "yes",
        "highway": "bus_stop",
        "name": "Ctra. De La Angostura Nº403",
        "operator": "Guaguas Global",
        "public_transport": "platform",
        "ref": "66171"
      }
    },
    {
      "type": "node",
      "id": 4132484173,
      "lat": 28.0534099,
      "lon": -15.4811811,
      "tags": {
        "bus": "yes",
        "highway": "bus_stop",
        "name": "Ctra. De La Angostura Nº435",
        "operator": "Guaguas Global",
        "public_transport": "platform",
        "ref": "66182"
      }
    },
    {
      "type": "node",
      "id": 4132484178,
      "lat": 28.0543555,
      "lon": -15.4791792,
      "tags": {
        "bus": "yes",
        "highway": "bus_stop",
        "name": "Cruce De Siete Puertas",
        "operator": "Guaguas Global",
        "public_transport": "platform",
        "ref": "66192"
      }
    },
    {
      "type": "node",
      "id": 4132484179,
      "lat": 28.0544076,
      "lon": -15.4792802,
      "tags": {
        "bus": "yes",
        "highway": "bus_stop",
        "name": "Cruce De Siete Puertas",
        "operator": "Guaguas Global",
        "public_transport": "platform",
        "ref": "66181"
      }
    },
    {
      "type": "node",
      "id": 4189211031,
      "lat": 28.057924,
      "lon": -15.5059832,
      "tags": {
        "bus": "yes",
        "highway": "bus_stop",
        "name": "Iglesia De La Milagrosa",
        "operator": "Global",
        "public_transport": "platform",
        "ref": "241000"
      }
    },
    {
      "type": "node",
      "id": 4189211090,
      "lat": 28.0604627,
      "lon": -15.5034328,
      "tags": {
        "bus": "yes",
        "highway": "bus_stop",
        "name": "Calle 5",
        "operator": "Global",
        "public_transport": "platform",
        "ref": "241011"
      }
    },
    {
      "type": "node",
      "id": 4189211164,
      "lat": 28.0650976,
      "lon": -15.500877,
      "tags": {
        "bus": "yes",
        "highway": "bus_stop",
        "name": "El Torreón",
        "operator": "Global",
        "public_transport": "platform",
        "ref": "241031"
      }
    },
    {
      "type": "node",
      "id": 4190086713,
      "lat": 28.068585,
      "lon": -15.4991154,
      "tags": {
        "bus": "yes",
        "highway": "bus_stop",
        "name": "Masapez",
        "operator": "Global",
        "public_transport": "platform",
        "ref": "241041"
      }
    },
    {
      "type": "node",
      "id": 4190086717,
      "lat": 28.0686224,
      "lon": -15.4992569,
      "tags": {
        "bus": "yes",
        "highway": "bus_stop",
        "name": "Masapez",
        "operator": "Global",
        "public_transport": "platform",
        "ref": "241042"
      }
    },
    {
      "type": "node",
      "id": 4190086941,
      "lat": 28.0707539,
      "lon": -15.4961059,
      "tags": {
        "bus": "yes",
        "highway": "bus_stop",
        "name": "Curva De Masapez",
        "operator": "Global",
        "public_transport": "platform",
        "ref": "241051"
      }
    },
    {
      "type": "node",
      "id": 4190087015,
      "lat": 28.0727288,
      "lon": -15.4955461,
      "tags": {
        "bus": "yes",
        "highway": "bus_stop",
        "name": "El Torreón",
        "operator": "Global",
        "public_transport": "platform",
        "ref": "241053"
      }
    },
    {
      "type": "node",
      "id": 4190087020,
      "lat": 28.0729305,
      "lon": -15.4955131,
      "tags": {
        "bus": "yes",
        "highway": "bus_stop",
        "name": "Curva De Masapez",
        "operator": "Global",
        "public_transport": "platform",
        "ref": "241052"
      }
    },
    {
      "type": "node",
      "id": 4191246100,
      "lat": 28.0549725,
      "lon": -15.482083,
      "tags": {
        "bus": "yes",
        "highway": "bus_stop",
        "public_transport": "platform"
      }
    },
    {
      "type": "node",
      "id": 4193593778,
      "lat": 28.0816817,
      "lon": -15.5043916,
      "tags": {
        "bench": "no",
        "bin": "no",
        "bus": "yes",
        "highway": "bus_stop",
        "name": "Área Recreativa",
        "operator": "Global",
        "public_transport": "platform",
        "ref": "243021",
        "shelter": "no",
        "tactile_paving": "no"
      }
    },
    {
      "type": "node",
      "id": 4193593779,
      "lat": 28.0817882,
      "lon": -15.5041265,
      "tags": {
        "bench": "no",
        "bin": "no",
        "bus": "yes",
        "highway": "bus_stop",
        "name": "Área Recreativa",
        "operator": "Global",
        "public_transport": "platform",
        "ref": "243022",
        "shelter": "no",
        "tactile_paving": "no"
      }
    },
    {
      "type": "node",
      "id": 4193594056,
      "lat": 28.0916914,
      "lon": -15.5052227,
      "tags": {
        "bench": "no",
        "bus": "yes",
        "highway": "bus_stop",
        "name": "Toscón",
        "operator": "Global",
        "public_transport": "platform",
        "ref": "131002",
        "shelter": "no"
      }
    },
    {
      "type": "node",
      "id": 4193594067,
      "lat": 28.0924681,
      "lon": -15.5051061,
      "tags": {
        "bus": "yes",
        "highway": "bus_stop",
        "name": "Casa Camineros",
        "operator": "Global",
        "public_transport": "platform",
        "ref": "131001"
      }
    },
    {
      "type": "node",
      "id": 4193594078,
      "lat": 28.0927459,
      "lon": -15.4946699,
      "tags": {
        "bench": "no",
        "bin": "no",
        "bus": "yes",
        "highway": "bus_stop",
        "lit": "no",
        "name": "Cruce San José Del Álamo",
        "operator": "Global",
        "public_transport": "platform",
        "ref": "242002",
        "shelter": "no",
        "tactile_paving": "no"
      }
    },
    {
      "type": "node",
      "id": 4193594088,
      "lat": 28.0933313,
      "lon": -15.5002733,
      "tags": {
        "bus": "yes",
        "highway": "bus_stop",
        "name": "Toscón Alto",
        "operator": "Global",
        "public_transport": "platform",
        "ref": "131011"
      }
    },
    {
      "type": "node",
      "id": 4193594093,
      "lat": 28.0933203,
      "lon": -15.5001719,
      "tags": {
        "bus": "yes",
        "highway": "bus_stop",
        "name": "Toscón Alto",
        "operator": "Global",
        "public_transport": "platform",
        "ref": "131012"
      }
    },
    {
      "type": "node",
      "id": 4194787093,
      "lat": 28.0953292,
      "lon": -15.4935935,
      "tags": {
        "bench": "yes",
        "bin": "yes",
        "bus": "yes",
        "highway": "bus_stop",
        "name": "Campo De Fútbol Piletas",
        "operator": "Global",
        "public_transport": "platform",
        "ref": "131033",
        "shelter": "no",
        "tactile_paving": "no"
      }
    },
    {
      "type": "node",
      "id": 4194787094,
      "lat": 28.0954439,
      "lon": -15.4932054,
      "tags": {
        "bench": "no",
        "bin": "no",
        "bus": "yes",
        "highway": "bus_stop",
        "name": "Campo De Fútbol Piletas",
        "operator": "Global",
        "public_transport": "platform",
        "ref": "131032",
        "shelter": "no",
        "tactile_paving": "no"
      }
    },
    {
      "type": "node",
      "id": 4199970486,
      "lat": 28.0765879,
      "lon": -15.4784042,
      "tags": {
        "bus": "yes",
        "highway": "bus_stop",
        "name": "Ctra. de San Lorenzo, 230",
        "public_transport": "platform",
        "ref": "759"
      }
    },
    {
      "type": "node",
      "id": 4199970488,
      "lat": 28.0768259,
      "lon": -15.4780363,
      "tags": {
        "bus": "yes",
        "highway": "bus_stop",
        "name": "Carretera de San Lorenzo, frente 230",
        "public_transport": "platform",
        "ref": "432"
      }
    },
    {
      "type": "node",
      "id": 4199970590,
      "lat": 28.0770356,
      "lon": -15.4788923,
      "tags": {
        "bus": "yes",
        "highway": "bus_stop",
        "name": "Ctra. de San Lorenzo (barranco)",
        "public_transport": "platform",
        "ref": "346"
      }
    },
    {
      "type": "node",
      "id": 4202036756,
      "lat": 28.0735546,
      "lon": -15.4682814,
      "tags": {
        "bus": "yes",
        "highway": "bus_stop",
        "name": "Centro Deportivo San Lorenzo",
        "public_transport": "platform",
        "ref": "760"
      }
    },
    {
      "type": "node",
      "id": 4202036911,
      "lat": 28.0757874,
      "lon": -15.473906,
      "tags": {
        "bus": "yes",
        "highway": "bus_stop",
        "name": "Ctra. de San Lorenzo, 282",
        "public_transport": "platform",
        "ref": "764"
      }
    },
    {
      "type": "node",
      "id": 4202036912,
      "lat": 28.0757896,
      "lon": -15.4740128,
      "tags": {
        "bus": "yes",
        "highway": "bus_stop",
        "name": "Ctra. de San Lorenzo, frente 282",
        "public_transport": "platform",
        "ref": "416",
        "shelter": "no"
      }
    },
    {
      "type": "node",
      "id": 4204025939,
      "lat": 28.0746537,
      "lon": -15.4639437,
      "tags": {
        "bus": "yes",
        "highway": "bus_stop",
        "name": "Camilo Martinón Navarro, frente 32",
        "public_transport": "platform",
        "ref": "756"
      }
    },
    {
      "type": "node",
      "id": 4204025940,
      "lat": 28.0746432,
      "lon": -15.4651965,
      "tags": {
        "bus": "yes",
        "highway": "bus_stop",
        "name": "Camilo Martinón Navarro, 69",
        "public_transport": "platform",
        "ref": "758"
      }
    },
    {
      "type": "node",
      "id": 4204025942,
      "lat": 28.0748087,
      "lon": -15.4637436,
      "tags": {
        "bus": "yes",
        "highway": "bus_stop",
        "name": "Camilo Martinón Navarro, 30",
        "public_transport": "platform",
        "ref": "430"
      }
    },
    {
      "type": "node",
      "id": 4204025947,
      "lat": 28.0759975,
      "lon": -15.4634311,
      "tags": {
        "bus": "yes",
        "highway": "bus_stop",
        "name": "Camilo Martinón Navarro (Tiscamanita)",
        "public_transport": "platform",
        "ref": "480"
      }
    },
    {
      "type": "node",
      "id": 4204025950,
      "lat": 28.0764929,
      "lon": -15.4635263,
      "tags": {
        "bus": "yes",
        "highway": "bus_stop",
        "name": "Camilo Martinón Navarro, 3",
        "public_transport": "platform",
        "ref": "754"
      }
    },
    {
      "type": "node",
      "id": 4204025970,
      "lat": 28.0777721,
      "lon": -15.462528,
      "tags": {
        "bench": "no",
        "bin": "yes",
        "bus": "yes",
        "highway": "bus_stop",
        "lit": "no",
        "name": "Ctra. de San Lorenzo, 400",
        "public_transport": "platform",
        "ref": "752",
        "shelter": "no",
        "tactile_paving": "no"
      }
    },
    {
      "type": "node",
      "id": 4204027191,
      "lat": 28.0787793,
      "lon": -15.4643943,
      "tags": {
        "bench": "no",
        "bin": "no",
        "bus": "yes",
        "highway": "bus_stop",
        "name": "Ctra. de San Lorenzo, 383",
        "public_transport": "platform",
        "ref": "382",
        "shelter": "no",
        "tactile_paving": "no"
      }
    },
    {
      "type": "node",
      "id": 4215189270,
      "lat": 28.0525818,
      "lon": -15.4617635,
      "tags": {
        "bus": "yes",
        "highway": "bus_stop",
        "name": "Carretera Los Hoyos",
        "public_transport": "platform",
        "ref": "52502",
        "shelter": "yes"
      }
    },
    {
      "type": "node",
      "id": 4215189273,
      "lat": 28.0526384,
      "lon": -15.461586,
      "tags": {
        "bus": "yes",
        "highway": "bus_stop",
        "name": "Carretera Los Hoyos",
        "public_transport": "platform",
        "ref": "52501"
      }
    },
    {
      "type": "node",
      "id": 4216949277,
      "lat": 28.0578839,
      "lon": -15.4650347,
      "tags": {
        "bus": "yes",
        "highway": "bus_stop",
        "name": "Cruce De La Calzada",
        "public_transport": "platform",
        "ref": "173002"
      }
    },
    {
      "type": "node",
      "id": 4216950305,
      "lat": 28.0590562,
      "lon": -15.4603878,
      "tags": {
        "bench": "yes",
        "bin": "yes",
        "bus": "yes",
        "highway": "bus_stop",
        "name": "Correos",
        "public_transport": "platform",
        "ref": "52111",
        "shelter": "yes"
      }
    },
    {
      "type": "node",
      "id": 4216950431,
      "lat": 28.0704206,
      "lon": -15.4610829,
      "tags": {
        "bus": "yes",
        "highway": "bus_stop",
        "public_transport": "platform"
      }
    },
    {
      "type": "node",
      "id": 4216950605,
      "lat": 28.086221,
      "lon": -15.4591542,
      "tags": {
        "bus": "yes",
        "highway": "bus_stop",
        "name": "Ctra. de Almatriche, 94",
        "public_transport": "platform",
        "ref": "504"
      }
    },
    {
      "type": "node",
      "id": 4216950626,
      "lat": 28.0909004,
      "lon": -15.4594175,
      "tags": {
        "bus": "yes",
        "highway": "bus_stop",
        "name": "Ctra. de Almatriche (gasolinera)",
        "public_transport": "platform",
        "ref": "742"
      }
    },
    {
      "type": "node",
      "id": 4216950671,
      "lat": 28.0946852,
      "lon": -15.4604928,
      "tags": {
        "bus": "yes",
        "highway": "bus_stop",
        "name": "Cuesta Blanca, 9",
        "operator": "Guaguas Municipales S.A",
        "public_transport": "platform",
        "ref": "778"
      }
    },
    {
      "type": "node",
      "id": 4216950672,
      "lat": 28.094617,
      "lon": -15.4606227,
      "tags": {
        "bus": "yes",
        "highway": "bus_stop",
        "name": "Cuesta Blanca, frente 11",
        "operator": "Guaguas Municipales S.A",
        "public_transport": "platform",
        "ref": "795"
      }
    },
    {
      "type": "node",
      "id": 4216950679,
      "lat": 28.095013,
      "lon": -15.4619305,
      "tags": {
        "bus": "yes",
        "highway": "bus_stop",
        "name": "Plutón, frente 14",
        "public_transport": "platform",
        "ref": "739"
      }
    },
    {
      "type": "node",
      "id": 4216950685,
      "lat": 28.0958328,
      "lon": -15.4626195,
      "tags": {
        "bench": "yes",
        "bin": "no",
        "bus": "yes",
        "highway": "bus_stop",
        "name": "Ctra. de Tamaraceite (urb. La Guillena)",
        "operator": "Guaguas Municipales S.A",
        "public_transport": "platform",
        "ref": "471",
        "shelter": "yes",
        "tactile_paving": "yes"
      }
    },
    {
      "type": "node",
      "id": 4216950686,
      "lat": 28.0959793,
      "lon": -15.4624981,
      "tags": {
        "bench": "yes",
        "bin": "yes",
        "bus": "yes",
        "highway": "bus_stop",
        "name": "Ctra. de Tamaraceite (urb. La Guillena)",
        "operator": "Guaguas Municipales S.A",
        "public_transport": "platform",
        "ref": "452",
        "shelter": "yes",
        "tactile_paving": "yes"
      }
    },
    {
      "type": "node",
      "id": 4217433895,
      "lat": 28.0938721,
      "lon": -15.4590377,
      "tags": {
        "bench": "yes",
        "bin": "yes",
        "bus": "yes",
        "highway": "bus_stop",
        "name": "Olivo (ctra. de Almatriche)",
        "public_transport": "platform",
        "ref": "766",
        "shelter": "yes"
      }
    },
    {
      "type": "node",
      "id": 4217433896,
      "lat": 28.0940925,
      "lon": -15.4588921,
      "tags": {
        "bench": "yes",
        "bin": "yes",
        "bus": "yes",
        "highway": "bus_stop",
        "name": "Olivo (ctra. de Almatriche)",
        "public_transport": "platform",
        "ref": "775",
        "shelter": "yes"
      }
    },
    {
      "type": "node",
      "id": 4219086895,
      "lat": 28.0692413,
      "lon": -15.4544216,
      "tags": {
        "bus": "yes",
        "highway": "bus_stop",
        "name": "Universidad",
        "operator": "Global",
        "public_transport": "platform",
        "ref": "152022",
        "shelter": "no"
      }
    },
    {
      "type": "node",
      "id": 4219465013,
      "lat": 28.0721845,
      "lon": -15.4496811,
      "tags": {
        "bench": "yes",
        "bin": "yes",
        "bus": "yes",
        "departures_board": "timetable",
        "highway": "bus_stop",
        "name": "Tafira Baja",
        "operator": "Guaguas Municipales S.A / Global",
        "public_transport": "platform",
        "ref": "528 / 152001",
        "shelter": "yes",
        "tactile_paving": "no"
      }
    },
    {
      "type": "node",
      "id": 4219465037,
      "lat": 28.0755716,
      "lon": -15.4517288,
      "tags": {
        "bus": "yes",
        "highway": "bus_stop",
        "name": "Biblioteca Universitaria",
        "network": "Guaguas Municipales",
        "operator": "Guaguas Municipales S.A",
        "public_transport": "platform",
        "ref": "682"
      }
    },
    {
      "type": "node",
      "id": 4219465038,
      "lat": 28.0756222,
      "lon": -15.4520725,
      "tags": {
        "bus": "yes",
        "highway": "bus_stop",
        "name": "Biblioteca Universitaria",
        "network": "Guaguas Municipales",
        "operator": "Guaguas Municipales S.A.",
        "public_transport": "platform",
        "ref": "688"
      }
    },
    {
      "type": "node",
      "id": 4219465063,
      "lat": 28.0781081,
      "lon": -15.4492476,
      "tags": {
        "bus": "yes",
        "highway": "bus_stop",
        "name": "Ciencias Jurídicas (Módulo B)",
        "network": "Guaguas Municipales",
        "operator": "Guaguas Municipales S.A",
        "public_transport": "platform",
        "ref": "691"
      }
    },
    {
      "type": "node",
      "id": 4219465064,
      "lat": 28.0781542,
      "lon": -15.4494693,
      "tags": {
        "bus": "yes",
        "highway": "bus_stop",
        "name": "Aulario Ciencias Jurídicas",
        "network": "Guaguas Municipales",
        "operator": "Guaguas Municipales S.A.",
        "public_transport": "platform",
        "ref": "690"
      }
    },
    {
      "type": "node",
      "id": 4219465068,
      "lat": 28.079517,
      "lon": -15.4534227,
      "tags": {
        "bus": "yes",
        "highway": "bus_stop",
        "name": "Parque Tecnológico",
        "network": "Guaguas Municipales",
        "operator": "Guaguas Municipales S.A",
        "public_transport": "platform",
        "ref": "666"
      }
    },
    {
      "type": "node",
      "id": 4219465073,
      "lat": 28.0800434,
      "lon": -15.4473503,
      "tags": {
        "bus": "yes",
        "highway": "bus_stop",
        "name": "Ctra. Lomo Blanco, 81",
        "public_transport": "platform",
        "ref": "580"
      }
    },
    {
      "type": "node",
      "id": 4221633816,
      "lat": 28.074016,
      "lon": -15.4467883,
      "tags": {
        "bus": "yes",
        "highway": "bus_stop",
        "name": "Ctra. Pico Viento (Asilo de Ancianos)",
        "network": "Guaguas Municipales",
        "operator": "Guaguas Municipales S.A.",
        "public_transport": "platform",
        "ref": "788",
        "shelter": "no"
      }
    },
    {
      "type": "node",
      "id": 4221634113,
      "lat": 28.0818582,
      "lon": -15.4471826,
      "tags": {
        "bus": "yes",
        "highway": "bus_stop",
        "name": "Ctra. Lomo Blanco (IES Felo Monzón)",
        "public_transport": "platform",
        "ref": "563"
      }
    },
    {
      "type": "node",
      "id": 4221634116,
      "lat": 28.0818927,
      "lon": -15.4470376,
      "tags": {
        "bus": "yes",
        "highway": "bus_stop",
        "name": "Ctra. Lomo Blanco, frente 51",
        "public_transport": "platform",
        "ref": "582"
      }
    },
    {
      "type": "node",
      "id": 4226412577,
      "lat": 28.0796317,
      "lon": -15.5144427,
      "tags": {
        "bus": "yes",
        "highway": "bus_stop",
        "name": "El Chaparral",
        "operator": "Global",
        "public_transport": "platform",
        "ref": "132041"
      }
    },
    {
      "type": "node",
      "id": 4226412897,
      "lat": 28.0955321,
      "lon": -15.5029735,
      "tags": {
        "bus": "yes",
        "highway": "bus_stop",
        "public_transport": "platform"
      }
    },
    {
      "type": "node",
      "id": 4226412931,
      "lat": 28.097193,
      "lon": -15.5021936,
      "tags": {
        "bus": "yes",
        "highway": "bus_stop",
        "name": "Las Mesas",
        "operator": "Global",
        "public_transport": "platform",
        "ref": "240001"
      }
    },
    {
      "type": "node",
      "id": 4226412932,
      "lat": 28.0972065,
      "lon": -15.5012248,
      "tags": {
        "bus": "yes",
        "highway": "bus_stop",
        "name": "C/ La Aldea Nº10",
        "operator": "Global",
        "public_transport": "platform",
        "ref": "240081"
      }
    },
    {
      "type": "node",
      "id": 4226412934,
      "lat": 28.1010977,
      "lon": -15.4973091,
      "tags": {
        "bus": "yes",
        "highway": "bus_stop",
        "name": "Colegio De Las Mesas",
        "operator": "Global",
        "public_transport": "platform",
        "ref": "240051"
      }
    },
    {
      "type": "node",
      "id": 4226412951,
      "lat": 28.0981232,
      "lon": -15.5010293,
      "tags": {
        "bus": "yes",
        "highway": "bus_stop",
        "name": "Avd. De La Democracia Nº47",
        "operator": "Global",
        "public_transport": "platform",
        "ref": "240011"
      }
    },
    {
      "type": "node",
      "id": 4226412957,
      "lat": 28.0984856,
      "lon": -15.4991817,
      "tags": {
        "bus": "yes",
        "highway": "bus_stop",
        "name": "C/ La Aldea",
        "operator": "Global",
        "public_transport": "platform",
        "ref": "240071"
      }
    },
    {
      "type": "node",
      "id": 4226412976,
      "lat": 28.0997162,
      "lon": -15.4977186,
      "tags": {
        "bus": "yes",
        "highway": "bus_stop",
        "name": "La Plaza",
        "operator": "Global",
        "public_transport": "platform",
        "ref": "240061"
      }
    },
    {
      "type": "node",
      "id": 4226413022,
      "lat": 28.1027025,
      "lon": -15.4956513,
      "tags": {
        "bus": "yes",
        "highway": "bus_stop",
        "name": "Recta De Las Mesas",
        "operator": "Global",
        "public_transport": "platform",
        "ref": "240041"
      }
    },
    {
      "type": "node",
      "id": 4226413028,
      "lat": 28.1028549,
      "lon": -15.4953572,
      "tags": {
        "bus": "yes",
        "highway": "bus_stop",
        "name": "Recta De Las Mesas",
        "operator": "Global",
        "public_transport": "platform",
        "ref": "240042"
      }
    },
    {
      "type": "node",
      "id": 4228071816,
      "lat": 28.0935882,
      "lon": -15.4894205,
      "tags": {
        "bench": "yes",
        "bin": "yes",
        "bus": "yes",
        "highway": "bus_stop",
        "name": "Rotonda Ciudad Del Campo",
        "operator": "Global",
        "public_transport": "platform",
        "ref": "131031",
        "shelter": "no",
        "tactile_paving": "no"
      }
    },
    {
      "type": "node",
      "id": 4228091892,
      "lat": 28.0929252,
      "lon": -15.4169395,
      "tags": {
        "bus": "yes",
        "highway": "bus_stop",
        "name": "Córdoba, 40",
        "operator": "Guaguas Municipales S.A.",
        "public_transport": "platform",
        "ref": "107"
      }
    },
    {
      "type": "node",
      "id": 4228092990,
      "lat": 28.0907716,
      "lon": -15.4182568,
      "tags": {
        "bus": "yes",
        "highway": "bus_stop",
        "name": "Córdoba, frente 31",
        "operator": "Guaguas Municipales S.A.",
        "public_transport": "platform",
        "ref": "109",
        "shelter": "yes"
      }
    },
    {
      "type": "node",
      "id": 4228105192,
      "lat": 28.0880156,
      "lon": -15.4195875,
      "tags": {
        "bus": "yes",
        "highway": "bus_stop",
        "name": "Córdoba, frente 49",
        "operator": "Guaguas Municipales S.A.",
        "public_transport": "platform",
        "ref": "113",
        "shelter": "yes"
      }
    },
    {
      "type": "node",
      "id": 4228110890,
      "lat": 28.09602,
      "lon": -15.4145083,
      "tags": {
        "bench": "yes",
        "bin": "no",
        "bus": "yes",
        "highway": "bus_stop",
        "lit": "yes",
        "name": "Eufemiano Jurado (Reyes Católicos)",
        "operator": "Guaguas Municipales S.A.",
        "public_transport": "platform",
        "ref": "640",
        "shelter": "yes",
        "tactile_paving": "no"
      }
    },
    {
      "type": "node",
      "id": 4228112589,
      "lat": 28.1028447,
      "lon": -15.4134095,
      "tags": {
        "bench": "yes",
        "bin": "yes",
        "bus": "yes",
        "highway": "bus_stop",
        "name": "Mercado Vegueta",
        "public_transport": "platform",
        "ref": "895",
        "shelter": "no",
        "tactile_paving": "no"
      }
    },
    {
      "type": "node",
      "id": 4228112689,
      "lat": 28.0859651,
      "lon": -15.4177996,
      "tags": {
        "bus": "yes",
        "highway": "bus_stop",
        "name": "Córdoba, 54",
        "operator": "Guaguas Municipales S.A.",
        "public_transport": "platform",
        "ref": "115"
      }
    },
    {
      "type": "node",
      "id": 4228112690,
      "lat": 28.085258,
      "lon": -15.4172274,
      "tags": {
        "bus": "yes",
        "highway": "bus_stop",
        "name": "Alicante (colegio Islas Canarias)",
        "public_transport": "platform",
        "ref": "117"
      }
    },
    {
      "type": "node",
      "id": 4228112889,
      "lat": 28.0850251,
      "lon": -15.4170976,
      "tags": {
        "bus": "yes",
        "highway": "bus_stop",
        "name": "Alicante (colegio Islas Canarias)",
        "operator": "Guaguas Municipales S.A.",
        "public_transport": "platform",
        "ref": "122",
        "shelter": "yes"
      }
    },
    {
      "type": "node",
      "id": 4228704516,
      "lat": 28.1101974,
      "lon": -15.4954176,
      "tags": {
        "bus": "yes",
        "highway": "bus_stop",
        "name": "C.E.I.P. Mª Jesús Pérez Morales",
        "operator": "Global",
        "public_transport": "platform",
        "ref": "250011"
      }
    },
    {
      "type": "node",
      "id": 4228704547,
      "lat": 28.1111987,
      "lon": -15.492996,
      "tags": {
        "bus": "yes",
        "highway": "bus_stop",
        "name": "Tunel De Tenoya",
        "operator": "Global",
        "public_transport": "platform",
        "ref": "103001"
      }
    },
    {
      "type": "node",
      "id": 4228704572,
      "lat": 28.1124789,
      "lon": -15.4966892,
      "tags": {
        "bus": "yes",
        "highway": "bus_stop",
        "name": "Subida Del Cementerio De Tenoya",
        "operator": "Global",
        "public_transport": "platform",
        "ref": "104012"
      }
    },
    {
      "type": "node",
      "id": 4228704592,
      "lat": 28.1133491,
      "lon": -15.4954225,
      "tags": {
        "bus": "yes",
        "highway": "bus_stop",
        "name": "Villa Capote",
        "operator": "Global",
        "public_transport": "platform",
        "ref": "250031"
      }
    },
    {
      "type": "node",
      "id": 4228704621,
      "lat": 28.1144805,
      "lon": -15.4923855,
      "tags": {
        "bus": "yes",
        "highway": "bus_stop",
        "name": "Cine De Tenoya",
        "operator": "Global",
        "public_transport": "platform",
        "ref": "104021"
      }
    },
    {
      "type": "node",
      "id": 4228704631,
      "lat": 28.1148603,
      "lon": -15.4924361,
      "tags": {
        "bus": "yes",
        "highway": "bus_stop",
        "name": "Cine De Tenoya",
        "operator": "Global",
        "public_transport": "platform",
        "ref": "103012"
      }
    },
    {
      "type": "node",
      "id": 4228704712,
      "lat": 28.1175255,
      "lon": -15.4925516,
      "tags": {
        "bus": "yes",
        "highway": "bus_stop",
        "name": "Tenoya",
        "operator": "Global",
        "public_transport": "platform",
        "ref": "103002"
      }
    },
    {
      "type": "node",
      "id": 4228704713,
      "lat": 28.1175962,
      "lon": -15.4926667,
      "tags": {
        "bus": "yes",
        "highway": "bus_stop",
        "name": "Tenoya",
        "operator": "Global",
        "public_transport": "platform",
        "ref": "104011"
      }
    },
    {
      "type": "node",
      "id": 4229782854,
      "lat": 28.1235077,
      "lon": -15.4809133,
      "tags": {
        "bus": "yes",
        "highway": "bus_stop",
        "name": "Ladera Alta",
        "public_transport": "platform",
        "ref": "234001"
      }
    },
    {
      "type": "node",
      "id": 4229782863,
      "lat": 28.1236647,
      "lon": -15.4808957,
      "tags": {
        "bus": "yes",
        "highway": "bus_stop",
        "name": "Ladera Alta",
        "public_transport": "platform",
        "ref": "234002"
      }
    },